{
"type": "FeatureCollection",
"features": [
{ "type": "Feature", "properties": { "adresse": "67 AVENUE DES CHARMES 94120 FONTENAY SOUS BOIS", "agrement": "Agrément maternel Capacité: 2", "nom": "AARON (CORSIA) Katy", "tel": "09-67-60-22-16", "longitude": 2.452479, "latitude": 48.8458632 }, "geometry": { "type": "Point", "coordinates": [ 2.452479, 48.8458632 ] } },
{ "type": "Feature", "properties": { "adresse": "6 RUE BOUVARD 94120 FONTENAY SOUS BOIS", "agrement": "Agrément maternel Capacité: 3", "nom": "ABA (HENRY) Evelyne", "tel": "01-48-77-80-88", "longitude": 2.4727922, "latitude": 48.8495662 }, "geometry": { "type": "Point", "coordinates": [ 2.4727922, 48.8495662 ] } },
{ "type": "Feature", "properties": { "adresse": "8 RUE PAUL LANGEVIN 94120 FONTENAY SOUS BOIS", "agrement": "Agrément maternel Capacité: 3", "nom": "ABOU JAOUDE (JABBOUR) Marcelle", "tel": "09-80-49-75-84", "longitude": 2.4782087, "latitude": 48.855097 }, "geometry": { "type": "Point", "coordinates": [ 2.4782087, 48.855097 ] } },
{ "type": "Feature", "properties": { "adresse": "70 RUE LA FONTAINE 94120 FONTENAY SOUS BOIS", "agrement": "Agrément maternel Capacité: 3", "nom": "ADDED (AOUINA) Aouicha", "tel": "01-48-76-25-18", "longitude": 2.4834318, "latitude": 48.8585166 }, "geometry": { "type": "Point", "coordinates": [ 2.4834318, 48.8585166 ] } },
{ "type": "Feature", "properties": { "adresse": "32 RUE LA FONTAINE 94120 FONTENAY SOUS BOIS", "agrement": "Agrément maternel Capacité: 2", "nom": "AFANDI (LAROUSSI) Rachida", "tel": "01-75-37-91-58", "longitude": 2.471494, "latitude": 48.8575682 }, "geometry": { "type": "Point", "coordinates": [ 2.471494, 48.8575682 ] } },
{ "type": "Feature", "properties": { "adresse": "90 AVENUE ERNEST RENAN 94120 FONTENAY SOUS BOIS", "agrement": "Agrément maternel Capacité: 3", "nom": "AIT CHAITE (BOUHAMADI) Ourkia", "tel": "09-52-53-09-88", "longitude": 2.4633299, "latitude": 48.8562446 }, "geometry": { "type": "Point", "coordinates": [ 2.4633299, 48.8562446 ] } },
{ "type": "Feature", "properties": { "adresse": "5 RUE ROGER SALENGRO 94120 FONTENAY SOUS BOIS", "agrement": "Agrément maternel Capacité: 3", "nom": "AJENGUI ANGOT (ANGOT) Lydie", "tel": "01-49-74-08-48", "longitude": 2.4877446, "latitude": 48.8487254 }, "geometry": { "type": "Point", "coordinates": [ 2.4877446, 48.8487254 ] } },
{ "type": "Feature", "properties": { "adresse": "4 AVENUE DE NEUILLY Porte n° 122 94120 FONTENAY SOUS BOIS", "agrement": "Agrément maternel Capacité: 3", "nom": "AKCHICHE (BALKADI) Malika", "tel": "09-51-07-05-22", "longitude": null, "latitude": null }, "geometry": null },
{ "type": "Feature", "properties": { "adresse": "40 AVENUE RABELAIS 94120 FONTENAY SOUS BOIS", "agrement": "Agrément maternel Capacité: 3", "nom": "AKCHICHE (CHELOUL) Ouiza", "tel": "01-48-73-23-68", "longitude": 2.4792215, "latitude": 48.8522577 }, "geometry": { "type": "Point", "coordinates": [ 2.4792215, 48.8522577 ] } },
{ "type": "Feature", "properties": { "adresse": "14 RUE MAXIMILIEN ROBESPIERRE 94120 FONTENAY SOUS BOIS", "agrement": "Agrément maternel Capacité: 3", "nom": "AKRICHE (GUERROUT) Ghania", "tel": "01-41-95-28-10", "longitude": 2.4854887, "latitude": 48.8498824 }, "geometry": { "type": "Point", "coordinates": [ 2.4854887, 48.8498824 ] } },
{ "type": "Feature", "properties": { "adresse": "ADRESSE", "agrement": "TYPE D'AGREMENT", "nom": "ASSISTANT(E) MATERNEL(LE) ET\/OU FAMILIAL(E)", "tel": null, "longitude": 144.75777994409501, "latitude": -37.9025717 }, "geometry": { "type": "Point", "coordinates": [ 144.757779944095006, -37.9025717 ] } },
{ "type": "Feature", "properties": { "adresse": "94 RUE PASTEUR Batiment n° 7 - Appartement n° 202 94120 FONTENAY SOUS BOIS", "agrement": "Agrément maternel Capacité: 2", "nom": "AKRIM (MOUSSAID) Sanaa", "tel": "01-48-75-54-17", "longitude": null, "latitude": null }, "geometry": null },
{ "type": "Feature", "properties": { "adresse": "112 RUE PASTEUR 94120 FONTENAY SOUS BOIS", "agrement": "Agrément maternel Capacité: 2", "nom": "AKROUR (MESSAOUD) Djouher", "tel": "07-81-08-75-59", "longitude": 2.4562219, "latitude": 48.848759 }, "geometry": { "type": "Point", "coordinates": [ 2.4562219, 48.848759 ] } },
{ "type": "Feature", "properties": { "adresse": "109 RUE CHARLES BASSEE 94120 FONTENAY SOUS BOIS", "agrement": "Agrément maternel Capacité: 3", "nom": "ALEXANDRE (MAZIER) Blandine", "tel": "01-48-76-72-99", "longitude": 2.4642396, "latitude": 48.8509397 }, "geometry": { "type": "Point", "coordinates": [ 2.4642396, 48.8509397 ] } },
{ "type": "Feature", "properties": { "adresse": "187BIS AVENUE DE LA REPUBLIQUE 94120 FONTENAY SOUS BOIS", "agrement": "Agrément maternel Capacité: 2", "nom": "ALLARIA Beatrice", "tel": "01-43-94-02-68", "longitude": 2.4630611, "latitude": 48.8524114 }, "geometry": { "type": "Point", "coordinates": [ 2.4630611, 48.8524114 ] } },
{ "type": "Feature", "properties": { "adresse": "27 RUE ANDRE TESSIER 94120 FONTENAY SOUS BOIS", "agrement": "Agrément maternel Capacité: 3", "nom": "AMARA (ABADA) Chahrazed", "tel": "09-52-77-10-15", "longitude": 2.4712191, "latitude": 48.8513556 }, "geometry": { "type": "Point", "coordinates": [ 2.4712191, 48.8513556 ] } },
{ "type": "Feature", "properties": { "adresse": "6 RUE DU BUISSON DE LA BERGERE Appartement n° 10 94120 FONTENAY SOUS BOIS", "agrement": "Agrément maternel Capacité: 3", "nom": "AMGHAR (BENYEZZAR) Ilham", "tel": "01-79-56-33-19", "longitude": null, "latitude": null }, "geometry": null },
{ "type": "Feature", "properties": { "adresse": "7 RUE AIME ET EUGENIE COTTON 94120 FONTENAY SOUS BOIS", "agrement": "Agrément maternel Capacité: 3", "nom": "AMOUZOU (ALLAH) Amevi Florence", "tel": "09-50-32-91-69", "longitude": 2.4788071, "latitude": 48.8539582 }, "geometry": { "type": "Point", "coordinates": [ 2.4788071, 48.8539582 ] } },
{ "type": "Feature", "properties": { "adresse": "77 RUE PASTEUR 94120 FONTENAY SOUS BOIS", "agrement": "Agrément maternel Capacité: 3", "nom": "ANTONIO (ALVES) Celia", "tel": "01-77-20-97-58", "longitude": 2.4597679, "latitude": 48.8479488 }, "geometry": { "type": "Point", "coordinates": [ 2.4597679, 48.8479488 ] } },
{ "type": "Feature", "properties": { "adresse": "138 RUE DES MOULINS 94120 FONTENAY SOUS BOIS", "agrement": "Agrément maternel Capacité: 3", "nom": "AUBERTIN (MOUS) Danielle", "tel": "01-80-51-23-84", "longitude": 2.4640118, "latitude": 48.8534944 }, "geometry": { "type": "Point", "coordinates": [ 2.4640118, 48.8534944 ] } },
{ "type": "Feature", "properties": { "adresse": "2 RUE DANIELLE CASANOVA 94120 FONTENAY SOUS BOIS", "agrement": "Agrément maternel Capacité: 2", "nom": "AZOUZ (MANAI) Amira", "tel": "09-50-60-87-49", "longitude": 2.4759468, "latitude": 48.8536265 }, "geometry": { "type": "Point", "coordinates": [ 2.4759468, 48.8536265 ] } },
{ "type": "Feature", "properties": { "adresse": "ADRESSE", "agrement": "TYPE D'AGREMENT", "nom": "ASSISTANT(E) MATERNEL(LE) ET\/OU FAMILIAL(E)", "tel": null, "longitude": 144.75777994409501, "latitude": -37.9025717 }, "geometry": { "type": "Point", "coordinates": [ 144.757779944095006, -37.9025717 ] } },
{ "type": "Feature", "properties": { "adresse": "46BIS AVENUE RABELAIS 94120 FONTENAY SOUS BOIS", "agrement": "Agrément maternel Capacité: 3", "nom": "BARBE (ANGEE) Nadège", "tel": "01-48-76-99-31", "longitude": 2.4814551, "latitude": 48.8522852 }, "geometry": { "type": "Point", "coordinates": [ 2.4814551, 48.8522852 ] } },
{ "type": "Feature", "properties": { "adresse": "1BIS RUE DES CARRIERES 94120 FONTENAY SOUS BOIS", "agrement": "Agrément maternel Capacité: 1", "nom": "BARRETO Isabel", "tel": "", "longitude": 2.4681134, "latitude": 48.8480141 }, "geometry": { "type": "Point", "coordinates": [ 2.4681134, 48.8480141 ] } },
{ "type": "Feature", "properties": { "adresse": "6 RUE MONTESQUIEU 94120 FONTENAY SOUS BOIS", "agrement": "Agrément maternel Capacité: 2", "nom": "BATHILY Haby", "tel": "06-63-30-30-89", "longitude": 2.4838001, "latitude": 48.849274 }, "geometry": { "type": "Point", "coordinates": [ 2.4838001, 48.849274 ] } },
{ "type": "Feature", "properties": { "adresse": "5 IMPASSE DE LA CROIX POMMIER 94120 FONTENAY SOUS BOIS", "agrement": "Agrément maternel Capacité: 2", "nom": "BEAUGRAND Celine", "tel": "", "longitude": 2.4807581, "latitude": 48.8430461 }, "geometry": { "type": "Point", "coordinates": [ 2.4807581, 48.8430461 ] } },
{ "type": "Feature", "properties": { "adresse": "07 RUE DES CARRIERES 94120 FONTENAY SOUS BOIS", "agrement": "Agrément maternel Capacité: 1", "nom": "BECHAR (AKSAS) Lamia", "tel": "07-81-47-39-41", "longitude": 2.4681134, "latitude": 48.8480141 }, "geometry": { "type": "Point", "coordinates": [ 2.4681134, 48.8480141 ] } },
{ "type": "Feature", "properties": { "adresse": "16 RUE DALAYRAC 94120 FONTENAY SOUS BOIS", "agrement": "Agrément maternel Capacité: 3", "nom": "BELAIDI (MECHOUEK) Zahia", "tel": "", "longitude": 2.4665711, "latitude": 48.8480452 }, "geometry": { "type": "Point", "coordinates": [ 2.4665711, 48.8480452 ] } },
{ "type": "Feature", "properties": { "adresse": "7 RUE FERNAND LEGER 94120 FONTENAY SOUS BOIS", "agrement": "Agrément maternel Capacité: 3", "nom": "BELGHITH Sihem", "tel": "01-82-01-83-53", "longitude": 2.4863179, "latitude": 48.8498147 }, "geometry": { "type": "Point", "coordinates": [ 2.4863179, 48.8498147 ] } },
{ "type": "Feature", "properties": { "adresse": "5 RUE FERNAND LEGER 94120 FONTENAY SOUS BOIS", "agrement": "Agrément maternel Capacité: 3", "nom": "BELHADJ Louisa", "tel": "", "longitude": 2.4858956, "latitude": 48.8498261 }, "geometry": { "type": "Point", "coordinates": [ 2.4858956, 48.8498261 ] } },
{ "type": "Feature", "properties": { "adresse": "17 AVENUE DES OLYMPIADES 94120 FONTENAY SOUS BOIS", "agrement": "Agrément maternel Capacité: 2", "nom": "BELLAL Moufida", "tel": "", "longitude": 2.4878466, "latitude": 48.8552362 }, "geometry": { "type": "Point", "coordinates": [ 2.4878466, 48.8552362 ] } },
{ "type": "Feature", "properties": { "adresse": "6 RUE MONTESQUIEU 94120 FONTENAY SOUS BOIS", "agrement": "Agrément maternel Capacité: 2", "nom": "BEN ALIA Malika", "tel": "09-52-04-70-72", "longitude": 2.4838001, "latitude": 48.849274 }, "geometry": { "type": "Point", "coordinates": [ 2.4838001, 48.849274 ] } },
{ "type": "Feature", "properties": { "adresse": "ADRESSE", "agrement": "TYPE D'AGREMENT", "nom": "ASSISTANT(E) MATERNEL(LE) ET\/OU FAMILIAL(E)", "tel": null, "longitude": 144.75777994409501, "latitude": -37.9025717 }, "geometry": { "type": "Point", "coordinates": [ 144.757779944095006, -37.9025717 ] } },
{ "type": "Feature", "properties": { "adresse": "2 RUE PAUL LANGEVIN Appartement n° 33 94120 FONTENAY SOUS BOIS", "agrement": "Agrément maternel Capacité: 3", "nom": "BEN HADJ YOUNES Ouided", "tel": "01-82-01-87-89", "longitude": null, "latitude": null }, "geometry": null },
{ "type": "Feature", "properties": { "adresse": "151 RUE PIERRE CURIE 94120 FONTENAY SOUS BOIS", "agrement": "Agrément maternel Capacité: 3", "nom": "BEN SAAD Sonia", "tel": "", "longitude": 2.4716729, "latitude": 48.8604046 }, "geometry": { "type": "Point", "coordinates": [ 2.4716729, 48.8604046 ] } },
{ "type": "Feature", "properties": { "adresse": "2 RUE HENRI WALLON 94120 FONTENAY SOUS BOIS", "agrement": "Agrément maternel Capacité: 3", "nom": "BEN SABEUR (BEN SABEUR) Hayet", "tel": "09-52-02-16-78", "longitude": 2.4800036, "latitude": 48.8568037 }, "geometry": { "type": "Point", "coordinates": [ 2.4800036, 48.8568037 ] } },
{ "type": "Feature", "properties": { "adresse": "08 RUE PAUL LANGEVIN APT 152 94120 FONTENAY SOUS BOIS", "agrement": "Agrément maternel Capacité: 3", "nom": "BEN SABEUR (BORJI) Rafika", "tel": "09-50-83-44-87", "longitude": null, "latitude": null }, "geometry": null },
{ "type": "Feature", "properties": { "adresse": "4 RUE DANIELLE CASANOVA 94120 FONTENAY SOUS BOIS", "agrement": "Agrément maternel Capacité: 2", "nom": "BENGHERNOUT (MEKIDECHE) Kheira", "tel": "01-48-76-44-74", "longitude": 2.4759575, "latitude": 48.8539356 }, "geometry": { "type": "Point", "coordinates": [ 2.4759575, 48.8539356 ] } },
{ "type": "Feature", "properties": { "adresse": "6 ALLEE MAXIME GORKI APT 409 94120 FONTENAY SOUS BOIS", "agrement": "Agrément maternel Capacité: 2", "nom": "BENINA (BASTI) Ibtissem", "tel": "09-52-25-86-27", "longitude": null, "latitude": null }, "geometry": null },
{ "type": "Feature", "properties": { "adresse": "21TER RUE ANDRE TESSIER 94120 FONTENAY SOUS BOIS", "agrement": "Agrément maternel Capacité: 2", "nom": "BENKRITLY Douniazed", "tel": "", "longitude": 2.4709102, "latitude": 48.8514984 }, "geometry": { "type": "Point", "coordinates": [ 2.4709102, 48.8514984 ] } },
{ "type": "Feature", "properties": { "adresse": "7 RUE FERNAND LEGER 94120 FONTENAY SOUS BOIS", "agrement": "Agrément maternel Capacité: 3", "nom": "BENOUDA (EL MOURABIT) Yasmina", "tel": "01-48-75-46-76", "longitude": 2.4863179, "latitude": 48.8498147 }, "geometry": { "type": "Point", "coordinates": [ 2.4863179, 48.8498147 ] } },
{ "type": "Feature", "properties": { "adresse": "151 RUE GAMBETTA 94120 FONTENAY SOUS BOIS", "agrement": "Agrément maternel Capacité: 2", "nom": "BLIAULT Deborah", "tel": "", "longitude": 2.4581842, "latitude": 48.8526449 }, "geometry": { "type": "Point", "coordinates": [ 2.4581842, 48.8526449 ] } },
{ "type": "Feature", "properties": { "adresse": "12 RUE DANIELLE CASANOVA 94120 FONTENAY SOUS BOIS", "agrement": "Agrément maternel Capacité: 2", "nom": "BOUADJADJA (TEBBAL) Zohra", "tel": "09-81-64-14-01", "longitude": 2.4756851, "latitude": 48.8544739 }, "geometry": { "type": "Point", "coordinates": [ 2.4756851, 48.8544739 ] } },
{ "type": "Feature", "properties": { "adresse": "ADRESSE", "agrement": "TYPE D'AGREMENT", "nom": "ASSISTANT(E) MATERNEL(LE) ET\/OU FAMILIAL(E)", "tel": null, "longitude": 144.75777994409501, "latitude": -37.9025717 }, "geometry": { "type": "Point", "coordinates": [ 144.757779944095006, -37.9025717 ] } },
{ "type": "Feature", "properties": { "adresse": "110 AVENUE DU MARECHAL JOFFRE 94120 FONTENAY SOUS BOIS", "agrement": "Agrément maternel Capacité: 3", "nom": "BOUBAKER (FESSI) Saloua", "tel": "01-48-75-15-09", "longitude": 2.4832936, "latitude": 48.8520091 }, "geometry": { "type": "Point", "coordinates": [ 2.4832936, 48.8520091 ] } },
{ "type": "Feature", "properties": { "adresse": "8 RUE MEDERIC 94120 FONTENAY SOUS BOIS", "agrement": "Agrément maternel Capacité: 2", "nom": "BOUCHER (RIBEIRO PINTO) Catarina", "tel": "01-48-73-91-50", "longitude": 2.4511559, "latitude": 48.8515039 }, "geometry": { "type": "Point", "coordinates": [ 2.4511559, 48.8515039 ] } },
{ "type": "Feature", "properties": { "adresse": "5 AVENUE DES OLYMPIADES 94120 FONTENAY SOUS BOIS", "agrement": "Agrément maternel Capacité: 2", "nom": "BOUDALI (ASWOUN) Imene", "tel": "", "longitude": 2.4878466, "latitude": 48.8552362 }, "geometry": { "type": "Point", "coordinates": [ 2.4878466, 48.8552362 ] } },
{ "type": "Feature", "properties": { "adresse": "27 RUE DES ALOUETTES 94120 FONTENAY SOUS BOIS", "agrement": "Agrément maternel Capacité: 2", "nom": "BOUDEKAK Yasmina", "tel": "", "longitude": 2.4947005, "latitude": 48.8552548 }, "geometry": { "type": "Point", "coordinates": [ 2.4947005, 48.8552548 ] } },
{ "type": "Feature", "properties": { "adresse": "21 RUE DALAYRAC 94120 FONTENAY SOUS BOIS", "agrement": "Agrément maternel Capacité: 3", "nom": "BOULANGER (LEVRAUX) Christel", "tel": "01-79-56-00-31", "longitude": 2.4664442, "latitude": 48.8479723 }, "geometry": { "type": "Point", "coordinates": [ 2.4664442, 48.8479723 ] } },
{ "type": "Feature", "properties": { "adresse": "1 ALLEE ALBERT CAMUS Appartement n° 222 94120 FONTENAY SOUS BOIS", "agrement": "Agrément maternel Capacité: 3", "nom": "BOULBES LE CLEACH Sophie", "tel": "09-87-61-15-34", "longitude": null, "latitude": null }, "geometry": null },
{ "type": "Feature", "properties": { "adresse": "55 AVENUE DU MARECHAL JOFFRE 94120 FONTENAY SOUS BOIS", "agrement": "Agrément maternel Capacité: 2", "nom": "BOUOULID IDRISSI Bouchra", "tel": "", "longitude": 2.4842241, "latitude": 48.8524751 }, "geometry": { "type": "Point", "coordinates": [ 2.4842241, 48.8524751 ] } },
{ "type": "Feature", "properties": { "adresse": "52 RUE ANATOLE FRANCE 94120 FONTENAY SOUS BOIS", "agrement": "Agrément maternel Capacité: 3", "nom": "BOUTAL (AUFRET) Caroline", "tel": "01-43-94-14-28", "longitude": 2.4709465, "latitude": 48.8546625 }, "geometry": { "type": "Point", "coordinates": [ 2.4709465, 48.8546625 ] } },
{ "type": "Feature", "properties": { "adresse": "284BIS AVENUE VICTOR HUGO 94120 FONTENAY SOUS BOIS", "agrement": "Agrément maternel Capacité: 2", "nom": "BOUZEKRI (BEN JEMAA) Meriam", "tel": "09-54-15-04-82", "longitude": 2.48157, "latitude": 48.8613286 }, "geometry": { "type": "Point", "coordinates": [ 2.48157, 48.8613286 ] } },
{ "type": "Feature", "properties": { "adresse": "7 RUE GUIZOT Appartement n° 712 94120 FONTENAY SOUS BOIS", "agrement": "Agrément maternel Capacité: 3", "nom": "BOYE (DIAGNE) Ndeye Gana", "tel": "01-48-77-38-41", "longitude": null, "latitude": null }, "geometry": null },
{ "type": "Feature", "properties": { "adresse": "ADRESSE", "agrement": "TYPE D'AGREMENT", "nom": "ASSISTANT(E) MATERNEL(LE) ET\/OU FAMILIAL(E)", "tel": null, "longitude": 144.75777994409501, "latitude": -37.9025717 }, "geometry": { "type": "Point", "coordinates": [ 144.757779944095006, -37.9025717 ] } },
{ "type": "Feature", "properties": { "adresse": "32 RUE ANDRE TESSIER 94120 FONTENAY SOUS BOIS", "agrement": "Agrément maternel Capacité: 3", "nom": "BRULE (SCHWACH) Carole", "tel": "09-81-07-93-93", "longitude": 2.469754, "latitude": 48.8519759 }, "geometry": { "type": "Point", "coordinates": [ 2.469754, 48.8519759 ] } },
{ "type": "Feature", "properties": { "adresse": "25 BOULEVARD HENRI RUEL 94120 FONTENAY SOUS BOIS", "agrement": "Agrément maternel Capacité: 2", "nom": "CARDOSO (DE OLIVEIRA SEMIAO) Ivone", "tel": "09-52-69-25-08", "longitude": 2.468165, "latitude": 48.8415055 }, "geometry": { "type": "Point", "coordinates": [ 2.468165, 48.8415055 ] } },
{ "type": "Feature", "properties": { "adresse": "6 RUE DANIELLE CASANOVA 94120 FONTENAY SOUS BOIS", "agrement": "Agrément maternel Capacité: 3", "nom": "CARDOSO (MORAIS) Maria Fatima", "tel": "09-84-33-18-09", "longitude": 2.4753761, "latitude": 48.8550308 }, "geometry": { "type": "Point", "coordinates": [ 2.4753761, 48.8550308 ] } },
{ "type": "Feature", "properties": { "adresse": "5 RUE VEDRINES 94120 FONTENAY SOUS BOIS", "agrement": "Agrément maternel Capacité: 3", "nom": "CAVALLI (MARTINEZ) Frederique", "tel": "01-43-94-25-63", "longitude": 2.4612456, "latitude": 48.8555819 }, "geometry": { "type": "Point", "coordinates": [ 2.4612456, 48.8555819 ] } },
{ "type": "Feature", "properties": { "adresse": "5 ALLEE MAXIME GORKI Appartement n° 375 94120 FONTENAY SOUS BOIS", "agrement": "Agrément maternel Capacité: 3", "nom": "CHABANE Ingrid", "tel": "09-83-44-79-93", "longitude": null, "latitude": null }, "geometry": null },
{ "type": "Feature", "properties": { "adresse": "1 RUE DANIELLE CASANOVA 94120 FONTENAY SOUS BOIS", "agrement": "Agrément maternel Capacité: 4", "nom": "CHADEYRAS (GUYOT-SIONNEST) Dominique", "tel": "01-43-94-08-68", "longitude": 2.4758504, "latitude": 48.8537787 }, "geometry": { "type": "Point", "coordinates": [ 2.4758504, 48.8537787 ] } },
{ "type": "Feature", "properties": { "adresse": "6 RUE JEAN-PIERRE TIMBAUD 94120 FONTENAY SOUS BOIS", "agrement": "Agrément maternel Capacité: 3", "nom": "CHALLABI Nathalie", "tel": "06-26-56-69-81", "longitude": 2.4743223, "latitude": 48.85633 }, "geometry": { "type": "Point", "coordinates": [ 2.4743223, 48.85633 ] } },
{ "type": "Feature", "properties": { "adresse": "26 RUE DU REVEREND PERE LUCIEN AUBRY 94120 FONTENAY SOUS BOIS", "agrement": "Agrément maternel Capacité: 3", "nom": "CHAMAA (SFAXI) Ikbel", "tel": "", "longitude": null, "latitude": null }, "geometry": null },
{ "type": "Feature", "properties": { "adresse": "23 BOULEVARD DE VERDUN 94120 FONTENAY SOUS BOIS", "agrement": "Agrément maternel Capacité: 2", "nom": "CHAMPMARTIN Michelle", "tel": "01-48-75-60-26", "longitude": 2.4727263, "latitude": 48.8519312 }, "geometry": { "type": "Point", "coordinates": [ 2.4727263, 48.8519312 ] } },
{ "type": "Feature", "properties": { "adresse": "51 ALLEE ALBERT CAMUS 94120 FONTENAY SOUS BOIS", "agrement": "Agrément maternel Capacité: 2", "nom": "CHARA Aicha", "tel": "09-53-67-64-97", "longitude": 2.4769224, "latitude": 48.8508863 }, "geometry": { "type": "Point", "coordinates": [ 2.4769224, 48.8508863 ] } },
{ "type": "Feature", "properties": { "adresse": "ADRESSE", "agrement": "TYPE D'AGREMENT", "nom": "ASSISTANT(E) MATERNEL(LE) ET\/OU FAMILIAL(E)", "tel": null, "longitude": 144.75777994409501, "latitude": -37.9025717 }, "geometry": { "type": "Point", "coordinates": [ 144.757779944095006, -37.9025717 ] } },
{ "type": "Feature", "properties": { "adresse": "4 AVENUE DE NEUILLY 94120 FONTENAY SOUS BOIS", "agrement": "Agrément maternel Capacité: 2", "nom": "CHEDED Hafida", "tel": "", "longitude": 2.486737, "latitude": 48.8474325 }, "geometry": { "type": "Point", "coordinates": [ 2.486737, 48.8474325 ] } },
{ "type": "Feature", "properties": { "adresse": "53 AVENUE RABELAIS 94120 FONTENAY SOUS BOIS", "agrement": "Agrément maternel Capacité: 2", "nom": "CHEMLAL (ATMANI) Djamila", "tel": "01-77-21-08-44", "longitude": 2.4814551, "latitude": 48.8522852 }, "geometry": { "type": "Point", "coordinates": [ 2.4814551, 48.8522852 ] } },
{ "type": "Feature", "properties": { "adresse": "80 AVENUE DU MARECHAL JOFFRE 94120 FONTENAY SOUS BOIS", "agrement": "Agrément maternel Capacité: 3", "nom": "CHETOUANI (FAKHANE) Rachida", "tel": "01-48-75-58-41", "longitude": 2.4842241, "latitude": 48.8524751 }, "geometry": { "type": "Point", "coordinates": [ 2.4842241, 48.8524751 ] } },
{ "type": "Feature", "properties": { "adresse": "4 RUE HENRI WALLON 94120 FONTENAY SOUS BOIS", "agrement": "Agrément maternel Capacité: 3", "nom": "CHIRRANE (ZIDANE) Najat", "tel": "09-52-72-35-04", "longitude": 2.4777825, "latitude": 48.8575103 }, "geometry": { "type": "Point", "coordinates": [ 2.4777825, 48.8575103 ] } },
{ "type": "Feature", "properties": { "adresse": "94 RUE PASTEUR 94120 FONTENAY SOUS BOIS", "agrement": "Agrément maternel Capacité: 3", "nom": "CHOUDAR (BENLEBCHOUCHE) Nora", "tel": "01-48-76-77-18", "longitude": 2.4567738, "latitude": 48.8486288 }, "geometry": { "type": "Point", "coordinates": [ 2.4567738, 48.8486288 ] } },
{ "type": "Feature", "properties": { "adresse": "96 AVENUE DE LA REPUBLIQUE 94120 FONTENAY SOUS BOIS", "agrement": "Agrément maternel Capacité: 2", "nom": "CODOUNIS (LAURET) Angélina", "tel": "06-22-48-52-63", "longitude": 2.4585725, "latitude": 48.8530257 }, "geometry": { "type": "Point", "coordinates": [ 2.4585725, 48.8530257 ] } },
{ "type": "Feature", "properties": { "adresse": "17 RUE FERNAND LEGER 94120 FONTENAY SOUS BOIS", "agrement": "Agrément maternel Capacité: 3", "nom": "COLOMBO Brigitte", "tel": "01-48-44-80-32", "longitude": 2.4874848, "latitude": 48.850522 }, "geometry": { "type": "Point", "coordinates": [ 2.4874848, 48.850522 ] } },
{ "type": "Feature", "properties": { "adresse": "48 RUE JEAN-JACQUES ROUSSEAU 94120 FONTENAY SOUS BOIS", "agrement": "Agrément maternel Capacité: 2", "nom": "CONDE Aminata", "tel": "01-82-01-03-40", "longitude": 2.458617, "latitude": 48.8468489 }, "geometry": { "type": "Point", "coordinates": [ 2.458617, 48.8468489 ] } },
{ "type": "Feature", "properties": { "adresse": "7 RUE DE LA CROIX HEURTEBISE 94120 FONTENAY SOUS BOIS", "agrement": "Agrément maternel Capacité: 3", "nom": "COQUELET (ARAUX) Marie-Paule", "tel": "09-81-89-42-31", "longitude": null, "latitude": null }, "geometry": null },
{ "type": "Feature", "properties": { "adresse": "4 RUE DANIELLE CASANOVA 94120 FONTENAY SOUS BOIS", "agrement": "Agrément maternel Capacité: 3", "nom": "COQUILLE (TORRES) Genevieve", "tel": "01-48-76-23-72", "longitude": 2.4759575, "latitude": 48.8539356 }, "geometry": { "type": "Point", "coordinates": [ 2.4759575, 48.8539356 ] } },
{ "type": "Feature", "properties": { "adresse": "ADRESSE", "agrement": "TYPE D'AGREMENT", "nom": "ASSISTANT(E) MATERNEL(LE) ET\/OU FAMILIAL(E)", "tel": null, "longitude": 144.75777994409501, "latitude": -37.9025717 }, "geometry": { "type": "Point", "coordinates": [ 144.757779944095006, -37.9025717 ] } },
{ "type": "Feature", "properties": { "adresse": "92 RUE DALAYRAC 94120 FONTENAY SOUS BOIS", "agrement": "Agrément maternel Capacité: 3", "nom": "COSTA Sylvie", "tel": "01-79-61-05-61", "longitude": 2.4592568, "latitude": 48.8492244 }, "geometry": { "type": "Point", "coordinates": [ 2.4592568, 48.8492244 ] } },
{ "type": "Feature", "properties": { "adresse": "177 RUE EDOUARD MAURY 94120 FONTENAY SOUS BOIS", "agrement": "Agrément maternel Capacité: 3", "nom": "COT Anne Florence", "tel": "01-43-94-20-28", "longitude": 2.4601464, "latitude": 48.8551518 }, "geometry": { "type": "Point", "coordinates": [ 2.4601464, 48.8551518 ] } },
{ "type": "Feature", "properties": { "adresse": "6 RUE PAUL LANGEVIN 94120 FONTENAY SOUS BOIS", "agrement": "Agrément maternel Capacité: 3", "nom": "DAHBI Nadia", "tel": "01-42-83-81-99", "longitude": 2.4792834, "latitude": 48.8547996 }, "geometry": { "type": "Point", "coordinates": [ 2.4792834, 48.8547996 ] } },
{ "type": "Feature", "properties": { "adresse": "24 RUE MAXIMILIEN ROBESPIERRE 94120 FONTENAY SOUS BOIS", "agrement": "Agrément maternel Capacité: 2", "nom": "DALIPI Mirsada", "tel": "01-48-77-60-30", "longitude": 2.4863082, "latitude": 48.8506542 }, "geometry": { "type": "Point", "coordinates": [ 2.4863082, 48.8506542 ] } },
{ "type": "Feature", "properties": { "adresse": "1 RUE LESAGE 94120 FONTENAY SOUS BOIS", "agrement": "Agrément maternel Capacité: 2", "nom": "DAREAU Esther", "tel": "01-41-95-84-60", "longitude": 2.4745723, "latitude": 48.8524403 }, "geometry": { "type": "Point", "coordinates": [ 2.4745723, 48.8524403 ] } },
{ "type": "Feature", "properties": { "adresse": "3 RUE AIME ET EUGENIE COTTON 94120 FONTENAY SOUS BOIS", "agrement": "Agrément maternel Capacité: 3", "nom": "DARRAS (CORDONNIER) Noelle", "tel": "01-43-94-27-96", "longitude": 2.4798049, "latitude": 48.8536607 }, "geometry": { "type": "Point", "coordinates": [ 2.4798049, 48.8536607 ] } },
{ "type": "Feature", "properties": { "adresse": "11 RUE DE LA MARE A GUILLAUME 94120 FONTENAY SOUS BOIS", "agrement": "Agrément maternel Capacité: 3", "nom": "DARWISH (LAMRI) Fatma Zohra", "tel": "01-48-75-13-26", "longitude": null, "latitude": null }, "geometry": null },
{ "type": "Feature", "properties": { "adresse": "9 AVENUE PABLO PICASSO 94120 FONTENAY SOUS BOIS", "agrement": "Agrément maternel Capacité: 3", "nom": "DEBUSSCHER (VERRIER) Christelle", "tel": "01-43-94-23-34", "longitude": 2.4861924, "latitude": 48.8564175 }, "geometry": { "type": "Point", "coordinates": [ 2.4861924, 48.8564175 ] } },
{ "type": "Feature", "properties": { "adresse": "14 RUE DE BIR HAKEIM 94120 FONTENAY SOUS BOIS", "agrement": "Agrément maternel Capacité: 3", "nom": "DETRIE (DESGRANDCHAMPS) Martine", "tel": "01-48-77-12-24", "longitude": 2.4803943, "latitude": 48.8429802 }, "geometry": { "type": "Point", "coordinates": [ 2.4803943, 48.8429802 ] } },
{ "type": "Feature", "properties": { "adresse": "62 RUE JEAN-JACQUES ROUSSEAU 94120 FONTENAY SOUS BOIS", "agrement": "Agrément maternel Capacité: 3", "nom": "DEVILLERS (ROUSSEL) Myriam", "tel": "01-77-22-54-73", "longitude": 2.458617, "latitude": 48.8468489 }, "geometry": { "type": "Point", "coordinates": [ 2.458617, 48.8468489 ] } },
{ "type": "Feature", "properties": { "adresse": "ADRESSE", "agrement": "TYPE D'AGREMENT", "nom": "ASSISTANT(E) MATERNEL(LE) ET\/OU FAMILIAL(E)", "tel": null, "longitude": 144.75777994409501, "latitude": -37.9025717 }, "geometry": { "type": "Point", "coordinates": [ 144.757779944095006, -37.9025717 ] } },
{ "type": "Feature", "properties": { "adresse": "18 RUE DU REVEREND PERE LUCIEN AUBRY 94120 FONTENAY SOUS BOIS", "agrement": "Agrément maternel Capacité: 3", "nom": "DEWASCH (BEAUD) Marie-Christine", "tel": "01-48-75-34-73", "longitude": null, "latitude": null }, "geometry": null },
{ "type": "Feature", "properties": { "adresse": "4 AVENUE DU MARECHAL JOFFRE 94120 FONTENAY SOUS BOIS", "agrement": "Agrément maternel Capacité: 3", "nom": "DIAS (DOS SANTOS) Fernanda", "tel": "01-41-95-01-13", "longitude": 2.4705691, "latitude": 48.8537472 }, "geometry": { "type": "Point", "coordinates": [ 2.4705691, 48.8537472 ] } },
{ "type": "Feature", "properties": { "adresse": "1 ALLEE ALBERT CAMUS Appartement n° 244 94120 FONTENAY SOUS BOIS", "agrement": "Agrément maternel Capacité: 3", "nom": "DJAAFRI (LACHAHAB) Fatiha", "tel": "09-50-42-95-33", "longitude": null, "latitude": null }, "geometry": null },
{ "type": "Feature", "properties": { "adresse": "8BIS RUE BALZAC 94120 FONTENAY SOUS BOIS", "agrement": "Agrément maternel Capacité: 3", "nom": "DJIGO Racky", "tel": "09-50-84-63-72", "longitude": 2.4708265, "latitude": 48.8589124 }, "geometry": { "type": "Point", "coordinates": [ 2.4708265, 48.8589124 ] } },
{ "type": "Feature", "properties": { "adresse": "1BIS RUE FABRE D EGLANTINE 94120 FONTENAY SOUS BOIS", "agrement": "Agrément maternel Capacité: 3", "nom": "DJOKIC (ZUJOVIC) Snezana", "tel": "01-41-95-23-53", "longitude": null, "latitude": null }, "geometry": null },
{ "type": "Feature", "properties": { "adresse": "13 RUE GEORGES LE TIEC 94120 FONTENAY SOUS BOIS", "agrement": "Agrément maternel Capacité: 3", "nom": "DOMIQUIN (NAVY) Gaby", "tel": "01-48-75-18-58", "longitude": 2.4507057, "latitude": 48.8528871 }, "geometry": { "type": "Point", "coordinates": [ 2.4507057, 48.8528871 ] } },
{ "type": "Feature", "properties": { "adresse": "24 RUE DU REVEREND PERE LUCIEN AUBRY 94120 FONTENAY SOUS BOIS", "agrement": "Agrément maternel Capacité: 2", "nom": "DOS SANTOS Caroline", "tel": "", "longitude": null, "latitude": null }, "geometry": null },
{ "type": "Feature", "properties": { "adresse": "17 VILLA SAINT-LOUIS 94120 FONTENAY SOUS BOIS", "agrement": "Agrément maternel Capacité: 3", "nom": "DRAY Veronique", "tel": "01-48-76-90-77", "longitude": 2.4651957, "latitude": 48.8444823 }, "geometry": { "type": "Point", "coordinates": [ 2.4651957, 48.8444823 ] } },
{ "type": "Feature", "properties": { "adresse": "53 RUE ROUBLOT Maison n°2 94120 FONTENAY SOUS BOIS", "agrement": "Agrément maternel Capacité: 4", "nom": "DRIES (DOLFI) Maryse", "tel": "01-41-95-26-04", "longitude": null, "latitude": null }, "geometry": null },
{ "type": "Feature", "properties": { "adresse": "90 AVENUE ERNEST RENAN 94120 FONTENAY SOUS BOIS", "agrement": "Agrément maternel Capacité: 2", "nom": "DUARTE (MEYER) Florence", "tel": "01-48-75-60-43", "longitude": 2.4633299, "latitude": 48.8562446 }, "geometry": { "type": "Point", "coordinates": [ 2.4633299, 48.8562446 ] } },
{ "type": "Feature", "properties": { "adresse": "ADRESSE", "agrement": "TYPE D'AGREMENT", "nom": "ASSISTANT(E) MATERNEL(LE) ET\/OU FAMILIAL(E)", "tel": null, "longitude": 144.75777994409501, "latitude": -37.9025717 }, "geometry": { "type": "Point", "coordinates": [ 144.757779944095006, -37.9025717 ] } },
{ "type": "Feature", "properties": { "adresse": "16 RUE DALAYRAC APPT 18 94120 FONTENAY SOUS BOIS", "agrement": "Agrément maternel Capacité: 3", "nom": "DUGARREAU-FAVRIL Farial", "tel": "09-67-22-30-38", "longitude": null, "latitude": null }, "geometry": null },
{ "type": "Feature", "properties": { "adresse": "84 AVENUE DE STALINGRAD 94120 FONTENAY SOUS BOIS", "agrement": "Agrément maternel Capacité: 2", "nom": "DUMOUCHEL DE PREMARE (MILADI) Fathia", "tel": "", "longitude": 2.4495069, "latitude": 48.8525234 }, "geometry": { "type": "Point", "coordinates": [ 2.4495069, 48.8525234 ] } },
{ "type": "Feature", "properties": { "adresse": "1 RUE JEAN MACE 94120 FONTENAY SOUS BOIS", "agrement": "Agrément maternel Capacité: 2", "nom": "EL ACHKAR Reine", "tel": "01-48-76-06-13", "longitude": 2.4814902, "latitude": 48.8548909 }, "geometry": { "type": "Point", "coordinates": [ 2.4814902, 48.8548909 ] } },
{ "type": "Feature", "properties": { "adresse": "2 RESIDENCE DU CLOS D ORLEANS 94120 FONTENAY SOUS BOIS", "agrement": "Agrément maternel Capacité: 2", "nom": "EL AMRAOUI (ESSOUAYENI) Mariem", "tel": "09-54-31-77-02", "longitude": null, "latitude": null }, "geometry": null },
{ "type": "Feature", "properties": { "adresse": "11 RUE DE LA CROIX HEURTEBISE 1er etage - Gauche 94120 FONTENAY SOUS BOIS", "agrement": "Agrément maternel Capacité: 2", "nom": "EL BALTI (ZRIG) Myriam", "tel": "09-80-68-43-06", "longitude": null, "latitude": null }, "geometry": null },
{ "type": "Feature", "properties": { "adresse": "19 RUE LOUIS AUROUX 94120 FONTENAY SOUS BOIS", "agrement": "Agrément maternel Capacité: 1", "nom": "EL KOURAICHI Fatna", "tel": "09-53-04-22-98", "longitude": 2.4951463, "latitude": 48.8546002 }, "geometry": { "type": "Point", "coordinates": [ 2.4951463, 48.8546002 ] } },
{ "type": "Feature", "properties": { "adresse": "18 RUE MAXIMILIEN ROBESPIERRE 94120 FONTENAY SOUS BOIS", "agrement": "Agrément maternel Capacité: 3", "nom": "ES SEDDYQY Souad", "tel": "09-50-42-92-77", "longitude": 2.4850357, "latitude": 48.8494277 }, "geometry": { "type": "Point", "coordinates": [ 2.4850357, 48.8494277 ] } },
{ "type": "Feature", "properties": { "adresse": "94 RUE PASTEUR 94120 FONTENAY SOUS BOIS", "agrement": "Agrément maternel Capacité: 3", "nom": "FARAG (HENIA) Saida", "tel": "", "longitude": 2.4567738, "latitude": 48.8486288 }, "geometry": { "type": "Point", "coordinates": [ 2.4567738, 48.8486288 ] } },
{ "type": "Feature", "properties": { "adresse": "8 RUE MAXIMILIEN ROBESPIERRE 94120 FONTENAY SOUS BOIS", "agrement": "Agrément maternel Capacité: 3", "nom": "FERNANDEZ (AOUNALLAH) Maria Fernanda", "tel": "01-77-99-19-74", "longitude": 2.4850277, "latitude": 48.8503881 }, "geometry": { "type": "Point", "coordinates": [ 2.4850277, 48.8503881 ] } },
{ "type": "Feature", "properties": { "adresse": "26 RUE LA FONTAINE 94120 FONTENAY SOUS BOIS", "agrement": "Agrément maternel Capacité: 2", "nom": "FONTENEAU Valerie", "tel": "01-74-50-50-48", "longitude": 2.471494, "latitude": 48.8575682 }, "geometry": { "type": "Point", "coordinates": [ 2.471494, 48.8575682 ] } },
{ "type": "Feature", "properties": { "adresse": "ADRESSE", "agrement": "TYPE D'AGREMENT", "nom": "ASSISTANT(E) MATERNEL(LE) ET\/OU FAMILIAL(E)", "tel": null, "longitude": 144.75777994409501, "latitude": -37.9025717 }, "geometry": { "type": "Point", "coordinates": [ 144.757779944095006, -37.9025717 ] } },
{ "type": "Feature", "properties": { "adresse": "35 RUE MAXIMILIEN ROBESPIERRE 94120 FONTENAY SOUS BOIS", "agrement": "Agrément maternel Capacité: 2", "nom": "FORTIER (WOJCIAK) Julia", "tel": "01-48-75-58-27", "longitude": 2.4851402, "latitude": 48.8515656 }, "geometry": { "type": "Point", "coordinates": [ 2.4851402, 48.8515656 ] } },
{ "type": "Feature", "properties": { "adresse": "59 RUE DU BOIS DES JONCS MARINS 94120 FONTENAY SOUS BOIS", "agrement": "Agrément maternel Capacité: 3", "nom": "FRANCISCO Alcinda", "tel": "01-48-72-84-65", "longitude": null, "latitude": null }, "geometry": null },
{ "type": "Feature", "properties": { "adresse": "2 RUE FERNAND LEGER 94120 FONTENAY SOUS BOIS", "agrement": "Agrément maternel Capacité: 3", "nom": "FRANCOIS Noelle", "tel": "01-48-77-23-32", "longitude": 2.4862112, "latitude": 48.8489786 }, "geometry": { "type": "Point", "coordinates": [ 2.4862112, 48.8489786 ] } },
{ "type": "Feature", "properties": { "adresse": "108 RUE PASTEUR 94120 FONTENAY SOUS BOIS", "agrement": "Agrément maternel Capacité: 3", "nom": "FRUTOS Marie Jose", "tel": "09-52-02-01-52", "longitude": 2.4565415, "latitude": 48.8487129 }, "geometry": { "type": "Point", "coordinates": [ 2.4565415, 48.8487129 ] } },
{ "type": "Feature", "properties": { "adresse": "4 RUE SAINT-VINCENT 94120 FONTENAY SOUS BOIS", "agrement": "Agrément maternel Capacité: 2", "nom": "FUSS Anne", "tel": "01-77-01-56-51", "longitude": 2.4684365, "latitude": 48.8450302 }, "geometry": { "type": "Point", "coordinates": [ 2.4684365, 48.8450302 ] } },
{ "type": "Feature", "properties": { "adresse": "51 RUE DU BOIS DES JONCS MARINS 94120 FONTENAY SOUS BOIS", "agrement": "Agrément maternel Capacité: 1", "nom": "GANA (BOUGUERRAH) Nacira", "tel": "09-53-12-31-45", "longitude": null, "latitude": null }, "geometry": null },
{ "type": "Feature", "properties": { "adresse": "4 RUE EPOIGNY 94120 FONTENAY SOUS BOIS", "agrement": "Agrément maternel Capacité: 3", "nom": "GANFOUDI (COURTOIS) Karine", "tel": "09-54-64-83-00", "longitude": 2.4748119, "latitude": 48.8439178 }, "geometry": { "type": "Point", "coordinates": [ 2.4748119, 48.8439178 ] } },
{ "type": "Feature", "properties": { "adresse": "39BIS RUE DU BOIS DES JONCS MARINS 94120 FONTENAY SOUS BOIS", "agrement": "Agrément maternel Capacité: 4", "nom": "GAUDIN Xavier", "tel": "01-43-24-19-93", "longitude": null, "latitude": null }, "geometry": null },
{ "type": "Feature", "properties": { "adresse": "36 RUE JEAN-JACQUES ROUSSEAU 94120 FONTENAY SOUS BOIS", "agrement": "Agrément maternel Capacité: 2", "nom": "GAUTHIER (NICOLLE) Martine", "tel": "01-70-13-27-72", "longitude": 2.458617, "latitude": 48.8468489 }, "geometry": { "type": "Point", "coordinates": [ 2.458617, 48.8468489 ] } },
{ "type": "Feature", "properties": { "adresse": "3 RUE FERNAND LEGER 94120 FONTENAY SOUS BOIS", "agrement": "Agrément maternel Capacité: 3", "nom": "GIRADO (FERNANDEZ) Rose- Marie", "tel": "01-49-74-05-09", "longitude": 2.4861375, "latitude": 48.849514 }, "geometry": { "type": "Point", "coordinates": [ 2.4861375, 48.849514 ] } },
{ "type": "Feature", "properties": { "adresse": "ADRESSE", "agrement": "TYPE D'AGREMENT", "nom": "ASSISTANT(E) MATERNEL(LE) ET\/OU FAMILIAL(E)", "tel": null, "longitude": 144.75777994409501, "latitude": -37.9025717 }, "geometry": { "type": "Point", "coordinates": [ 144.757779944095006, -37.9025717 ] } },
{ "type": "Feature", "properties": { "adresse": "12 RUE JEAN MACE 94120 FONTENAY SOUS BOIS", "agrement": "Agrément maternel Capacité: 2", "nom": "GONNET (LUC) Catherine", "tel": "01-48-77-36-75", "longitude": 2.4771333, "latitude": 48.8569259 }, "geometry": { "type": "Point", "coordinates": [ 2.4771333, 48.8569259 ] } },
{ "type": "Feature", "properties": { "adresse": "5 ALLEE MAXIME GORKI Appartement n° 382 94120 FONTENAY SOUS BOIS", "agrement": "Agrément maternel Capacité: 3", "nom": "GRANDIDIER (GRANDIDIER-BLANCHEMAIN)\nValerie", "tel": "09-72-82-88-46", "longitude": null, "latitude": null }, "geometry": null },
{ "type": "Feature", "properties": { "adresse": "5 ALLEE MAXIME GORKI Appartement n° 372 94120 FONTENAY SOUS BOIS", "agrement": "Agrément maternel Capacité: 3", "nom": "GROS (LOR) Isabelle", "tel": "01-48-75-36-09", "longitude": null, "latitude": null }, "geometry": null },
{ "type": "Feature", "properties": { "adresse": "203 ALLEE ALBERT CAMUS 94120 FONTENAY SOUS BOIS", "agrement": "Agrément maternel Capacité: 2", "nom": "GROUSSELLE (LIRZIN) Danielle", "tel": "01-48-76-15-86", "longitude": 2.4769224, "latitude": 48.8508863 }, "geometry": { "type": "Point", "coordinates": [ 2.4769224, 48.8508863 ] } },
{ "type": "Feature", "properties": { "adresse": "5 RUE PAULINE 94120 FONTENAY SOUS BOIS", "agrement": "Agrément maternel Capacité: 2", "nom": "HADRI Noria", "tel": "", "longitude": 2.4599121, "latitude": 48.8474525 }, "geometry": { "type": "Point", "coordinates": [ 2.4599121, 48.8474525 ] } },
{ "type": "Feature", "properties": { "adresse": "13 RUE FERNAND LEGER 94120 FONTENAY SOUS BOIS", "agrement": "Agrément maternel Capacité: 2", "nom": "HAMEL (MESSAOUDI) Salima", "tel": "09-54-89-40-07", "longitude": 2.4875568, "latitude": 48.8500987 }, "geometry": { "type": "Point", "coordinates": [ 2.4875568, 48.8500987 ] } },
{ "type": "Feature", "properties": { "adresse": "14 RUE JEAN ZAY 94120 FONTENAY SOUS BOIS", "agrement": "Agrément maternel Capacité: 3", "nom": "HAMROUN (SAYAH) Rahma", "tel": "09-51-45-40-04", "longitude": 2.48519083042259, "latitude": 48.85616665 }, "geometry": { "type": "Point", "coordinates": [ 2.48519083042259, 48.85616665 ] } },
{ "type": "Feature", "properties": { "adresse": "4 RUE LOUISE MICHEL 94120 FONTENAY SOUS BOIS", "agrement": "Agrément maternel Capacité: 3", "nom": "HASSAM (DJENADI) Souhila", "tel": "09-52-94-35-91", "longitude": 2.4764564, "latitude": 48.8572592 }, "geometry": { "type": "Point", "coordinates": [ 2.4764564, 48.8572592 ] } },
{ "type": "Feature", "properties": { "adresse": "32 RUE DENIS PAPIN 94120 FONTENAY SOUS BOIS", "agrement": "Agrément maternel Capacité: 3", "nom": "HASSANI Laila", "tel": "09-53-88-36-11", "longitude": 2.4725529, "latitude": 48.853396 }, "geometry": { "type": "Point", "coordinates": [ 2.4725529, 48.853396 ] } },
{ "type": "Feature", "properties": { "adresse": "46 AVENUE RABELAIS 94120 FONTENAY SOUS BOIS", "agrement": "Agrément maternel Capacité: 1", "nom": "HATEAU Lydia", "tel": "01-43-94-95-54", "longitude": 2.4815163, "latitude": 48.8521387 }, "geometry": { "type": "Point", "coordinates": [ 2.4815163, 48.8521387 ] } },
{ "type": "Feature", "properties": { "adresse": "ADRESSE", "agrement": "TYPE D'AGREMENT", "nom": "ASSISTANT(E) MATERNEL(LE) ET\/OU FAMILIAL(E)", "tel": null, "longitude": 144.75777994409501, "latitude": -37.9025717 }, "geometry": { "type": "Point", "coordinates": [ 144.757779944095006, -37.9025717 ] } },
{ "type": "Feature", "properties": { "adresse": "94 RUE PASTEUR 94120 FONTENAY SOUS BOIS", "agrement": "Agrément maternel Capacité: 3", "nom": "HENIA (BOUDIAF) Halima", "tel": "01-48-75-66-15", "longitude": 2.4567738, "latitude": 48.8486288 }, "geometry": { "type": "Point", "coordinates": [ 2.4567738, 48.8486288 ] } },
{ "type": "Feature", "properties": { "adresse": "33 RUE DU BOIS DES JONCS MARINS 94120 FONTENAY SOUS BOIS", "agrement": "Agrément maternel Capacité: 2", "nom": "HERIN (ASSABAR) Karine", "tel": "09-80-64-75-35", "longitude": null, "latitude": null }, "geometry": null },
{ "type": "Feature", "properties": { "adresse": "82 RUE DESIRE RICHEBOIS 94120 FONTENAY SOUS BOIS", "agrement": "Agrément maternel Capacité: 3", "nom": "HERIN (BOUCHERON) Sylvie", "tel": "", "longitude": 2.476725, "latitude": 48.8430634 }, "geometry": { "type": "Point", "coordinates": [ 2.476725, 48.8430634 ] } },
{ "type": "Feature", "properties": { "adresse": "4 RUE DANIELLE CASANOVA 94120 FONTENAY SOUS BOIS", "agrement": "Agrément maternel Capacité: 3", "nom": "HERRERA Beatriz", "tel": "01-48-76-88-29", "longitude": 2.4759575, "latitude": 48.8539356 }, "geometry": { "type": "Point", "coordinates": [ 2.4759575, 48.8539356 ] } },
{ "type": "Feature", "properties": { "adresse": "6 RUE DE LA CROIX HEURTEBISE 94120 FONTENAY SOUS BOIS", "agrement": "Agrément maternel Capacité: 3", "nom": "HERVE (JACQUAULT) Sandrine", "tel": "09-54-16-29-66", "longitude": null, "latitude": null }, "geometry": null },
{ "type": "Feature", "properties": { "adresse": "44 AVENUE RABELAIS 94120 FONTENAY SOUS BOIS", "agrement": "Agrément maternel Capacité: 3", "nom": "HUGON (CRAUSER) Florence", "tel": "06-83-31-54-75", "longitude": 2.4808342, "latitude": 48.8522237 }, "geometry": { "type": "Point", "coordinates": [ 2.4808342, 48.8522237 ] } },
{ "type": "Feature", "properties": { "adresse": "13 RUE FERNAND LEGER 94120 FONTENAY SOUS BOIS", "agrement": "Agrément maternel Capacité: 3", "nom": "JABINET (PATOUT) Valèrie", "tel": "09-86-38-81-23", "longitude": 2.4875568, "latitude": 48.8500987 }, "geometry": { "type": "Point", "coordinates": [ 2.4875568, 48.8500987 ] } },
{ "type": "Feature", "properties": { "adresse": "6 RUE JEAN-PIERRE TIMBAUD 94120 FONTENAY SOUS BOIS", "agrement": "Agrément maternel Capacité: 2", "nom": "JOUDI Leila", "tel": "09-52-68-23-49", "longitude": 2.4743223, "latitude": 48.85633 }, "geometry": { "type": "Point", "coordinates": [ 2.4743223, 48.85633 ] } },
{ "type": "Feature", "properties": { "adresse": "195 RUE LA FONTAINE 94120 FONTENAY SOUS BOIS", "agrement": "Agrément maternel Capacité: 2", "nom": "JUNIER Haingo", "tel": "09-54-35-97-62", "longitude": 2.4790601, "latitude": 48.8583637 }, "geometry": { "type": "Point", "coordinates": [ 2.4790601, 48.8583637 ] } },
{ "type": "Feature", "properties": { "adresse": "49 AVENUE RABELAIS 94120 FONTENAY SOUS BOIS", "agrement": "Agrément maternel Capacité: 2", "nom": "KHATOU Naima", "tel": "", "longitude": 2.4814551, "latitude": 48.8522852 }, "geometry": { "type": "Point", "coordinates": [ 2.4814551, 48.8522852 ] } },
{ "type": "Feature", "properties": { "adresse": "ADRESSE", "agrement": "TYPE D'AGREMENT", "nom": "ASSISTANT(E) MATERNEL(LE) ET\/OU FAMILIAL(E)", "tel": null, "longitude": 144.75777994409501, "latitude": -37.9025717 }, "geometry": { "type": "Point", "coordinates": [ 144.757779944095006, -37.9025717 ] } },
{ "type": "Feature", "properties": { "adresse": "58 RUE GUERIN LEROUX 94120 FONTENAY SOUS BOIS", "agrement": "Agrément maternel Capacité: 2", "nom": "KHIAL (MOULEFERA) Naima", "tel": "01-48-73-66-97", "longitude": 2.4774752, "latitude": 48.8487146 }, "geometry": { "type": "Point", "coordinates": [ 2.4774752, 48.8487146 ] } },
{ "type": "Feature", "properties": { "adresse": "24 RUE LOUIS AUROUX 94120 FONTENAY SOUS BOIS", "agrement": "Agrément maternel Capacité: 2", "nom": "KIOUAS (GHIAT) Zakia", "tel": "01-48-76-20-21", "longitude": 2.4968068, "latitude": 48.8556985 }, "geometry": { "type": "Point", "coordinates": [ 2.4968068, 48.8556985 ] } },
{ "type": "Feature", "properties": { "adresse": "5 RUE FERNAND LEGER 94120 FONTENAY SOUS BOIS", "agrement": "Agrément maternel Capacité: 2", "nom": "KORCHI Ismahane", "tel": "01-48-77-30-97", "longitude": 2.4858956, "latitude": 48.8498261 }, "geometry": { "type": "Point", "coordinates": [ 2.4858956, 48.8498261 ] } },
{ "type": "Feature", "properties": { "adresse": "10 RUE DANIELLE CASANOVA 94120 FONTENAY SOUS BOIS", "agrement": "Agrément maternel Capacité: 2", "nom": "KRAWCZYK (RABUSZKO) Anna", "tel": "01-41-95-03-12", "longitude": 2.4756851, "latitude": 48.8544739 }, "geometry": { "type": "Point", "coordinates": [ 2.4756851, 48.8544739 ] } },
{ "type": "Feature", "properties": { "adresse": "3 RUE DANIELLE CASANOVA 94120 FONTENAY SOUS BOIS", "agrement": "Agrément maternel Capacité: 3", "nom": "KRICHAH (MAROUANI) Selma", "tel": "09-83-24-79-94", "longitude": 2.4758438, "latitude": 48.8541428 }, "geometry": { "type": "Point", "coordinates": [ 2.4758438, 48.8541428 ] } },
{ "type": "Feature", "properties": { "adresse": "5BIS RUE DU RUISSEAU 94120 FONTENAY SOUS BOIS", "agrement": "Agrément maternel Capacité: 3", "nom": "KRSTIC (CHERIF) Catherine", "tel": "09-52-60-65-93", "longitude": 2.4645573, "latitude": 48.8520397 }, "geometry": { "type": "Point", "coordinates": [ 2.4645573, 48.8520397 ] } },
{ "type": "Feature", "properties": { "adresse": "5 AVENUE PABLO PICASSO 94120 FONTENAY SOUS BOIS", "agrement": "Agrément maternel Capacité: 2", "nom": "LABDOUNI Noelle", "tel": "", "longitude": 2.4862796, "latitude": 48.8566615 }, "geometry": { "type": "Point", "coordinates": [ 2.4862796, 48.8566615 ] } },
{ "type": "Feature", "properties": { "adresse": "6\/428 ALLEE MAXIME GORKI Appartement n° 428 94120 FONTENAY SOUS BOIS", "agrement": "Agrément maternel Capacité: 3", "nom": "LABONDE (MOLLA) Patricia", "tel": "01-48-73-83-94", "longitude": null, "latitude": null }, "geometry": null },
{ "type": "Feature", "properties": { "adresse": "7 RUE BERTIE ALBRECHT Batiment Bretagne 94120 FONTENAY SOUS BOIS", "agrement": "Agrément maternel Capacité: 3", "nom": "LABRI (CRESPO) Valerie", "tel": "01-77-23-56-63", "longitude": null, "latitude": null }, "geometry": null },
{ "type": "Feature", "properties": { "adresse": "94 RUE PASTEUR 94120 FONTENAY SOUS BOIS", "agrement": "Agrément maternel Capacité: 3", "nom": "LAFIFI (KHALDI) Ouria", "tel": "09-52-34-67-05", "longitude": 2.4567738, "latitude": 48.8486288 }, "geometry": { "type": "Point", "coordinates": [ 2.4567738, 48.8486288 ] } },
{ "type": "Feature", "properties": { "adresse": "ADRESSE", "agrement": "TYPE D'AGREMENT", "nom": "ASSISTANT(E) MATERNEL(LE) ET\/OU FAMILIAL(E)", "tel": null, "longitude": 144.75777994409501, "latitude": -37.9025717 }, "geometry": { "type": "Point", "coordinates": [ 144.757779944095006, -37.9025717 ] } },
{ "type": "Feature", "properties": { "adresse": "12 RUE MAXIMILIEN ROBESPIERRE 94120 FONTENAY SOUS BOIS", "agrement": "Agrément maternel Capacité: 2", "nom": "LAIOUAR (BEN DJABALLAH) Mohsena", "tel": "09-50-53-93-28", "longitude": 2.4853806, "latitude": 48.8501264 }, "geometry": { "type": "Point", "coordinates": [ 2.4853806, 48.8501264 ] } },
{ "type": "Feature", "properties": { "adresse": "110 AVENUE DU MARECHAL JOFFRE 94120 FONTENAY SOUS BOIS", "agrement": "Agrément maternel Capacité: 3", "nom": "LALANNE (CRUSSON) Anne", "tel": "01-43-94-27-70", "longitude": 2.4832936, "latitude": 48.8520091 }, "geometry": { "type": "Point", "coordinates": [ 2.4832936, 48.8520091 ] } },
{ "type": "Feature", "properties": { "adresse": "20 RUE MAXIMILIEN ROBESPIERRE 94120 FONTENAY SOUS BOIS", "agrement": "Agrément maternel Capacité: 3", "nom": "LANASRI (SALEM) Samira", "tel": "09-51-97-44-25", "longitude": 2.4860182, "latitude": 48.8509537 }, "geometry": { "type": "Point", "coordinates": [ 2.4860182, 48.8509537 ] } },
{ "type": "Feature", "properties": { "adresse": "8 RUE PAUL LANGEVIN 94120 FONTENAY SOUS BOIS", "agrement": "Agrément maternel Capacité: 3", "nom": "LANKECHARI (BORGI) Houda", "tel": "01-48-75-16-59", "longitude": 2.4782087, "latitude": 48.855097 }, "geometry": { "type": "Point", "coordinates": [ 2.4782087, 48.855097 ] } },
{ "type": "Feature", "properties": { "adresse": "1 ALLEE ALBERT CAMUS Appartement n° 147 94120 FONTENAY SOUS BOIS", "agrement": "Agrément maternel Capacité: 3", "nom": "LECLERCQ Gisele", "tel": "01-41-95-76-11", "longitude": null, "latitude": null }, "geometry": null },
{ "type": "Feature", "properties": { "adresse": "8 RUE MONTESQUIEU BP 198 94120 FONTENAY SOUS BOIS", "agrement": "Agrément maternel Capacité: 3", "nom": "LEGHLISSI Hassina", "tel": "01-48-75-14-43", "longitude": null, "latitude": null }, "geometry": null },
{ "type": "Feature", "properties": { "adresse": "10 RUE GUIZOT 94120 FONTENAY SOUS BOIS", "agrement": "Agrément maternel Capacité: 3", "nom": "LETOMBE Sandrine", "tel": "01-41-95-19-88", "longitude": 2.473754, "latitude": 48.8560197 }, "geometry": { "type": "Point", "coordinates": [ 2.473754, 48.8560197 ] } },
{ "type": "Feature", "properties": { "adresse": "4 ALLEE HENRI BARBUSSE 7eme etage - Porte n° 55 94120 FONTENAY SOUS BOIS", "agrement": "Agrément maternel Capacité: 3", "nom": "LHERBIER (QUEDE) Dominique", "tel": "01-48-75-18-62", "longitude": null, "latitude": null }, "geometry": null },
{ "type": "Feature", "properties": { "adresse": "8 AVENUE DE NEUILLY 94120 FONTENAY SOUS BOIS", "agrement": "Agrément maternel Capacité: 2", "nom": "LOMBA Marie-Laure", "tel": "09-51-82-79-17", "longitude": 2.486737, "latitude": 48.8474325 }, "geometry": { "type": "Point", "coordinates": [ 2.486737, 48.8474325 ] } },
{ "type": "Feature", "properties": { "adresse": "7 RUE AIME ET EUGENIE COTTON 94120 FONTENAY SOUS BOIS", "agrement": "Agrément maternel Capacité: 3", "nom": "LOMBARD Francoise", "tel": "01-77-23-81-43", "longitude": 2.4788071, "latitude": 48.8539582 }, "geometry": { "type": "Point", "coordinates": [ 2.4788071, 48.8539582 ] } },
{ "type": "Feature", "properties": { "adresse": "ADRESSE", "agrement": "TYPE D'AGREMENT", "nom": "ASSISTANT(E) MATERNEL(LE) ET\/OU FAMILIAL(E)", "tel": null, "longitude": 144.75777994409501, "latitude": -37.9025717 }, "geometry": { "type": "Point", "coordinates": [ 144.757779944095006, -37.9025717 ] } },
{ "type": "Feature", "properties": { "adresse": "113 BOULEVARD GALLIENI Appt 33 94120 FONTENAY SOUS BOIS", "agrement": "Agrément maternel Capacité: 3", "nom": "LOUAIL Marianne", "tel": "01-48-75-06-02", "longitude": null, "latitude": null }, "geometry": null },
{ "type": "Feature", "properties": { "adresse": "1 RUE EDOUARD VAILLANT 94120 FONTENAY SOUS BOIS", "agrement": "Agrément maternel Capacité: 3", "nom": "LY (LY) Sana", "tel": "01-41-95-07-71", "longitude": 2.4831059, "latitude": 48.8508108 }, "geometry": { "type": "Point", "coordinates": [ 2.4831059, 48.8508108 ] } },
{ "type": "Feature", "properties": { "adresse": "14 RUE LA FONTAINE 94120 FONTENAY SOUS BOIS", "agrement": "Agrément maternel Capacité: 2", "nom": "MADANI (GYOR) Noemi", "tel": "", "longitude": 2.471494, "latitude": 48.8575682 }, "geometry": { "type": "Point", "coordinates": [ 2.471494, 48.8575682 ] } },
{ "type": "Feature", "properties": { "adresse": "1 RUE DES CARRIERES 94120 FONTENAY SOUS BOIS", "agrement": "Agrément maternel Capacité: 2", "nom": "MADOUNI (EICHHOLTZER) Laetitia", "tel": "09-81-44-26-37", "longitude": 2.4681134, "latitude": 48.8480141 }, "geometry": { "type": "Point", "coordinates": [ 2.4681134, 48.8480141 ] } },
{ "type": "Feature", "properties": { "adresse": "52 RUE JEAN-JACQUES ROUSSEAU 94120 FONTENAY SOUS BOIS", "agrement": "Agrément maternel Capacité: 3", "nom": "MAHIR Fatima", "tel": "01-82-01-66-51", "longitude": 2.458617, "latitude": 48.8468489 }, "geometry": { "type": "Point", "coordinates": [ 2.458617, 48.8468489 ] } },
{ "type": "Feature", "properties": { "adresse": "94 RUE PASTEUR 94120 FONTENAY SOUS BOIS", "agrement": "Agrément maternel Capacité: 3", "nom": "MAHROUK (MEJRI) Ouassila", "tel": "01-49-74-94-23", "longitude": 2.4567738, "latitude": 48.8486288 }, "geometry": { "type": "Point", "coordinates": [ 2.4567738, 48.8486288 ] } },
{ "type": "Feature", "properties": { "adresse": "47 RUE BEAUMARCHAIS 94120 FONTENAY SOUS BOIS", "agrement": "Agrément maternel Capacité: 3", "nom": "MAIZATE (TITA) Amina", "tel": "01-48-73-64-56", "longitude": 2.4731074, "latitude": 48.8549064 }, "geometry": { "type": "Point", "coordinates": [ 2.4731074, 48.8549064 ] } },
{ "type": "Feature", "properties": { "adresse": "1 RUE ROSENBERG 94120 FONTENAY SOUS BOIS", "agrement": "Agrément maternel Capacité: 3", "nom": "MANGA Marie-Love", "tel": "06-50-24-91-70", "longitude": 2.4763725, "latitude": 48.856051 }, "geometry": { "type": "Point", "coordinates": [ 2.4763725, 48.856051 ] } },
{ "type": "Feature", "properties": { "adresse": "16 RUE LA FONTAINE 94120 FONTENAY SOUS BOIS", "agrement": "Agrément maternel Capacité: 3", "nom": "MANIGOLD Karine", "tel": "01-48-76-02-17", "longitude": 2.471494, "latitude": 48.8575682 }, "geometry": { "type": "Point", "coordinates": [ 2.471494, 48.8575682 ] } },
{ "type": "Feature", "properties": { "adresse": "5 AVENUE PABLO PICASSO Appartement n° 259 94120 FONTENAY SOUS BOIS", "agrement": "Agrément maternel Capacité: 4", "nom": "MARECO Marie-Rosa", "tel": "01-48-73-44-32", "longitude": null, "latitude": null }, "geometry": null },
{ "type": "Feature", "properties": { "adresse": "ADRESSE", "agrement": "TYPE D'AGREMENT", "nom": "ASSISTANT(E) MATERNEL(LE) ET\/OU FAMILIAL(E)", "tel": null, "longitude": 144.75777994409501, "latitude": -37.9025717 }, "geometry": { "type": "Point", "coordinates": [ 144.757779944095006, -37.9025717 ] } },
{ "type": "Feature", "properties": { "adresse": "67 BOULEVARD DE VERDUN 94120 FONTENAY SOUS BOIS", "agrement": "Agrément maternel Capacité: 2", "nom": "MARTINS Maria", "tel": "01-48-73-29-24", "longitude": 2.4694928, "latitude": 48.8538342 }, "geometry": { "type": "Point", "coordinates": [ 2.4694928, 48.8538342 ] } },
{ "type": "Feature", "properties": { "adresse": "13 RUE GEORGES GUYNEMER 94120 FONTENAY SOUS BOIS", "agrement": "Agrément maternel Capacité: 2", "nom": "MARZOUKI Naziha", "tel": "09-86-74-62-81", "longitude": 2.4870369, "latitude": 48.8490273 }, "geometry": { "type": "Point", "coordinates": [ 2.4870369, 48.8490273 ] } },
{ "type": "Feature", "properties": { "adresse": "2BIS RUE DE TRUCY 94120 FONTENAY SOUS BOIS", "agrement": "Agrément maternel Capacité: 2", "nom": "MAUGER Estelle", "tel": "01-79-61-73-18", "longitude": 2.453685, "latitude": 48.852174 }, "geometry": { "type": "Point", "coordinates": [ 2.453685, 48.852174 ] } },
{ "type": "Feature", "properties": { "adresse": "5 RUE DES CARRIERES 94120 FONTENAY SOUS BOIS", "agrement": "Agrément maternel Capacité: 3", "nom": "MAURY Sandrine", "tel": "09-84-23-83-38", "longitude": 2.4681134, "latitude": 48.8480141 }, "geometry": { "type": "Point", "coordinates": [ 2.4681134, 48.8480141 ] } },
{ "type": "Feature", "properties": { "adresse": "77 RUE PASTEUR 94120 FONTENAY SOUS BOIS", "agrement": "Agrément maternel Capacité: 2", "nom": "MECHOUEK (MECHOUEK) Fatma", "tel": "01-48-73-82-64", "longitude": 2.4597679, "latitude": 48.8479488 }, "geometry": { "type": "Point", "coordinates": [ 2.4597679, 48.8479488 ] } },
{ "type": "Feature", "properties": { "adresse": "1 ALLEE ALBERT CAMUS Appartement n° 215 94120 FONTENAY SOUS BOIS", "agrement": "Agrément maternel Capacité: 3", "nom": "MEMIS Ferizan", "tel": "01-48-73-67-21", "longitude": null, "latitude": null }, "geometry": null },
{ "type": "Feature", "properties": { "adresse": "5 VILLA EUGENIE 94120 FONTENAY SOUS BOIS", "agrement": "Agrément maternel Capacité: 2", "nom": "MENDES CARVALHO Ana Maria", "tel": "", "longitude": 2.4673744, "latitude": 48.8537446 }, "geometry": { "type": "Point", "coordinates": [ 2.4673744, 48.8537446 ] } },
{ "type": "Feature", "properties": { "adresse": "5 AVENUE DES OLYMPIADES Appartement n° 164 94120 FONTENAY SOUS BOIS", "agrement": "Agrément maternel Capacité: 3", "nom": "MERZAQ (YOUSFI) Jamila", "tel": "06-73-78-53-44", "longitude": null, "latitude": null }, "geometry": null },
{ "type": "Feature", "properties": { "adresse": "4 ALLEE MAXIME GORKI Appartement n° 342 94120 FONTENAY SOUS BOIS", "agrement": "Agrément maternel Capacité: 3", "nom": "MESSAOUD (FOUDA) Saliha", "tel": "09-82-55-30-01", "longitude": null, "latitude": null }, "geometry": null },
{ "type": "Feature", "properties": { "adresse": "116 RUE DALAYRAC 94120 FONTENAY SOUS BOIS", "agrement": "Agrément maternel Capacité: 2", "nom": "MESSAOUD Zoubida", "tel": "09-53-97-40-60", "longitude": 2.4647361, "latitude": 48.8486548 }, "geometry": { "type": "Point", "coordinates": [ 2.4647361, 48.8486548 ] } },
{ "type": "Feature", "properties": { "adresse": "ADRESSE", "agrement": "TYPE D'AGREMENT", "nom": "ASSISTANT(E) MATERNEL(LE) ET\/OU FAMILIAL(E)", "tel": null, "longitude": 144.75777994409501, "latitude": -37.9025717 }, "geometry": { "type": "Point", "coordinates": [ 144.757779944095006, -37.9025717 ] } },
{ "type": "Feature", "properties": { "adresse": "23 BOULEVARD DES 2 COMMUNES 94120 FONTENAY SOUS BOIS", "agrement": "Agrément maternel Capacité: 3", "nom": "METAYER (DUGROSPREZ) Jocelyne", "tel": "01-48-77-25-37", "longitude": null, "latitude": null }, "geometry": null },
{ "type": "Feature", "properties": { "adresse": "7 RUE JEAN MACE 94120 FONTENAY SOUS BOIS", "agrement": "Agrément maternel Capacité: 3", "nom": "MILADI (KOUT) Aziza", "tel": "01-41-95-70-26", "longitude": 2.4793574, "latitude": 48.8559188 }, "geometry": { "type": "Point", "coordinates": [ 2.4793574, 48.8559188 ] } },
{ "type": "Feature", "properties": { "adresse": "177 RUE EDOUARD MAURY 94120 FONTENAY SOUS BOIS", "agrement": "Agrément maternel Capacité: 2", "nom": "MILLET Jean-Christophe", "tel": "01-43-94-20-28", "longitude": 2.4601464, "latitude": 48.8551518 }, "geometry": { "type": "Point", "coordinates": [ 2.4601464, 48.8551518 ] } },
{ "type": "Feature", "properties": { "adresse": "62 RUE JEAN-JACQUES ROUSSEAU 94120 FONTENAY SOUS BOIS", "agrement": "Agrément maternel Capacité: 3", "nom": "MISSERAOUI Sandrine", "tel": "01-48-75-44-21", "longitude": 2.458617, "latitude": 48.8468489 }, "geometry": { "type": "Point", "coordinates": [ 2.458617, 48.8468489 ] } },
{ "type": "Feature", "properties": { "adresse": "9 AVENUE PABLO PICASSO Bat G - Appartement n° 298 94120 FONTENAY SOUS BOIS", "agrement": "Agrément maternel Capacité: 3", "nom": "MORELLON (PILLEUX) Sylvie", "tel": "01-77-20-80-54", "longitude": null, "latitude": null }, "geometry": null },
{ "type": "Feature", "properties": { "adresse": "1 AVENUE CHARLES GARCIA 94120 FONTENAY SOUS BOIS", "agrement": "Agrément maternel Capacité: 3", "nom": "MORLET Elisabeth", "tel": "01-49-74-08-76", "longitude": 2.4818722, "latitude": 48.8549293 }, "geometry": { "type": "Point", "coordinates": [ 2.4818722, 48.8549293 ] } },
{ "type": "Feature", "properties": { "adresse": "10 AVENUE DE NEUILLY 94120 FONTENAY SOUS BOIS", "agrement": "Agrément maternel Capacité: 3", "nom": "MOUCHARD (RICHARD) Jocelyne", "tel": "01-48-73-43-71", "longitude": 2.486737, "latitude": 48.8474325 }, "geometry": { "type": "Point", "coordinates": [ 2.486737, 48.8474325 ] } },
{ "type": "Feature", "properties": { "adresse": "3 AVENUE PABLO PICASSO 94120 FONTENAY SOUS BOIS", "agrement": "Agrément maternel Capacité: 3", "nom": "MOUFAKHIR Naima", "tel": "01-48-73-16-26", "longitude": 2.4862796, "latitude": 48.8566615 }, "geometry": { "type": "Point", "coordinates": [ 2.4862796, 48.8566615 ] } },
{ "type": "Feature", "properties": { "adresse": "1 ALLEE ALBERT CAMUS Appartement n° 247 94120 FONTENAY SOUS BOIS", "agrement": "Agrément maternel Capacité: 2", "nom": "MOUHOUS (ZOURDANI) Nacira", "tel": "01-48-77-80-67", "longitude": null, "latitude": null }, "geometry": null },
{ "type": "Feature", "properties": { "adresse": "65TER BOULEVARD DE VERDUN 94120 FONTENAY SOUS BOIS", "agrement": "Agrément maternel Capacité: 3", "nom": "MOULIN Sandrine", "tel": "", "longitude": 2.4694928, "latitude": 48.8538342 }, "geometry": { "type": "Point", "coordinates": [ 2.4694928, 48.8538342 ] } },
{ "type": "Feature", "properties": { "adresse": "ADRESSE", "agrement": "TYPE D'AGREMENT", "nom": "ASSISTANT(E) MATERNEL(LE) ET\/OU FAMILIAL(E)", "tel": null, "longitude": 144.75777994409501, "latitude": -37.9025717 }, "geometry": { "type": "Point", "coordinates": [ 144.757779944095006, -37.9025717 ] } },
{ "type": "Feature", "properties": { "adresse": "14 RUE EMILE ZOLA 94120 FONTENAY SOUS BOIS", "agrement": "Agrément maternel Capacité: 2", "nom": "MOUSSAOUI (DABOUZ) Djazia", "tel": "09-54-02-82-32", "longitude": 2.4710382, "latitude": 48.8572969 }, "geometry": { "type": "Point", "coordinates": [ 2.4710382, 48.8572969 ] } },
{ "type": "Feature", "properties": { "adresse": "39 RUE GAMBETTA Porte W 1er etage 94120 FONTENAY SOUS BOIS", "agrement": "Agrément maternel Capacité: 2", "nom": "MOUTIN (RINGOT) Caroline", "tel": "", "longitude": null, "latitude": null }, "geometry": null },
{ "type": "Feature", "properties": { "adresse": "23BIS VILLA DES 4 RUELLES 94120 FONTENAY SOUS BOIS", "agrement": "Agrément maternel Capacité: 3", "nom": "MUHLHEIM Simone", "tel": "", "longitude": null, "latitude": null }, "geometry": null },
{ "type": "Feature", "properties": { "adresse": "13 RUE DES CARRIERES 94120 FONTENAY SOUS BOIS", "agrement": "Agrément maternel Capacité: 2", "nom": "MUSEUX (BONASSIE) Laurence", "tel": "01-48-76-77-72", "longitude": 2.4681134, "latitude": 48.8480141 }, "geometry": { "type": "Point", "coordinates": [ 2.4681134, 48.8480141 ] } },
{ "type": "Feature", "properties": { "adresse": "160 ALLEE ALBERT CAMUS 94120 FONTENAY SOUS BOIS", "agrement": "Agrément maternel Capacité: 3", "nom": "NGUYEN Kim", "tel": "01-48-73-37-61", "longitude": 2.4769224, "latitude": 48.8508863 }, "geometry": { "type": "Point", "coordinates": [ 2.4769224, 48.8508863 ] } },
{ "type": "Feature", "properties": { "adresse": "67 RUE EUGENE MARTIN 94120 FONTENAY SOUS BOIS", "agrement": "Agrément maternel Capacité: 3", "nom": "NICOLLE Sabine", "tel": "", "longitude": 2.4595475, "latitude": 48.8513586 }, "geometry": { "type": "Point", "coordinates": [ 2.4595475, 48.8513586 ] } },
{ "type": "Feature", "properties": { "adresse": "2 RESIDENCE DU CLOS D ORLEANS 94120 FONTENAY SOUS BOIS", "agrement": "Agrément maternel Capacité: 3", "nom": "NIVAUD (ENEAU) Emmanuelle", "tel": "01-48-77-67-29", "longitude": null, "latitude": null }, "geometry": null },
{ "type": "Feature", "properties": { "adresse": "8 RUE MAXIMILIEN ROBESPIERRE 94120 FONTENAY SOUS BOIS", "agrement": "Agrément maternel Capacité: 3", "nom": "NOUGHA (KHELOUFI) Khadra", "tel": "01-48-77-12-30", "longitude": 2.4850277, "latitude": 48.8503881 }, "geometry": { "type": "Point", "coordinates": [ 2.4850277, 48.8503881 ] } },
{ "type": "Feature", "properties": { "adresse": "4 VILLA DES BELLES VUES 94120 FONTENAY SOUS BOIS", "agrement": "Agrément maternel Capacité: 3", "nom": "NOYEZ (LAINE) Michele", "tel": "01-48-75-65-06", "longitude": 2.4704031, "latitude": 48.8480134 }, "geometry": { "type": "Point", "coordinates": [ 2.4704031, 48.8480134 ] } },
{ "type": "Feature", "properties": { "adresse": "5 RUE JEAN ZAY 94120 FONTENAY SOUS BOIS", "agrement": "Agrément maternel Capacité: 3", "nom": "OBRUN (VADELEUX) Catherine", "tel": "01-48-73-38-46", "longitude": 2.4839846, "latitude": 48.8568128 }, "geometry": { "type": "Point", "coordinates": [ 2.4839846, 48.8568128 ] } },
{ "type": "Feature", "properties": { "adresse": "ADRESSE", "agrement": "TYPE D'AGREMENT", "nom": "ASSISTANT(E) MATERNEL(LE) ET\/OU FAMILIAL(E)", "tel": null, "longitude": 144.75777994409501, "latitude": -37.9025717 }, "geometry": { "type": "Point", "coordinates": [ 144.757779944095006, -37.9025717 ] } },
{ "type": "Feature", "properties": { "adresse": "26 AVENUE CHARLES GARCIA 94120 FONTENAY SOUS BOIS", "agrement": "Agrément maternel Capacité: 3", "nom": "ORHAN (DEMIEL) Stephanie", "tel": "01-48-73-78-46", "longitude": 2.4816629, "latitude": 48.8579387 }, "geometry": { "type": "Point", "coordinates": [ 2.4816629, 48.8579387 ] } },
{ "type": "Feature", "properties": { "adresse": "1 ALLEE ALBERT CAMUS Appartement n° 230 94120 FONTENAY SOUS BOIS", "agrement": "Agrément maternel Capacité: 3", "nom": "OUATTARA Zele Ramatou", "tel": "01-48-76-85-58", "longitude": null, "latitude": null }, "geometry": null },
{ "type": "Feature", "properties": { "adresse": "135 RUE DES MOULINS 94120 FONTENAY SOUS BOIS", "agrement": "Agrément maternel Capacité: 3", "nom": "OUMAKHLOUF (ZENATI) Khokha", "tel": "01-48-73-05-65", "longitude": 2.4655476, "latitude": 48.8532783 }, "geometry": { "type": "Point", "coordinates": [ 2.4655476, 48.8532783 ] } },
{ "type": "Feature", "properties": { "adresse": "3 ALLEE MAXIME GORKI Appartement n° 313 94120 FONTENAY SOUS BOIS", "agrement": "Agrément maternel Capacité: 4", "nom": "PATEYRON (MOURIER) Patricia", "tel": "09-83-01-16-11", "longitude": null, "latitude": null }, "geometry": null },
{ "type": "Feature", "properties": { "adresse": "13 RUE DE LA CROIX HEURTEBISE 94120 FONTENAY SOUS BOIS", "agrement": "Agrément maternel Capacité: 2", "nom": "PONCHEL (ZEA RAMIREZ) Gloria", "tel": "", "longitude": null, "latitude": null }, "geometry": null },
{ "type": "Feature", "properties": { "adresse": "16 RUE LA FONTAINE 94120 FONTENAY SOUS BOIS", "agrement": "Agrément maternel Capacité: 4", "nom": "PRADOUX (BEGOT) Joelle", "tel": "01-49-74-02-28", "longitude": 2.471494, "latitude": 48.8575682 }, "geometry": { "type": "Point", "coordinates": [ 2.471494, 48.8575682 ] } },
{ "type": "Feature", "properties": { "adresse": "27 RUE DES ALOUETTES 94120 FONTENAY SOUS BOIS", "agrement": "Agrément maternel Capacité: 3", "nom": "RABIA (HNID) Mahjouba", "tel": "09-54-78-96-02", "longitude": 2.4947005, "latitude": 48.8552548 }, "geometry": { "type": "Point", "coordinates": [ 2.4947005, 48.8552548 ] } },
{ "type": "Feature", "properties": { "adresse": "15 RUE FERNAND LEGER 94120 FONTENAY SOUS BOIS", "agrement": "Agrément maternel Capacité: 2", "nom": "RASOLOFOMANANA (ANDRIAMANANTENA)\nIharisoa", "tel": "", "longitude": 2.4873301, "latitude": 48.8504829 }, "geometry": { "type": "Point", "coordinates": [ 2.4873301, 48.8504829 ] } },
{ "type": "Feature", "properties": { "adresse": "3 IMPASSE DE LA CROIX POMMIER 94120 FONTENAY SOUS BOIS", "agrement": "Agrément maternel Capacité: 2", "nom": "RAZAFINDRAKOTO Tahiri", "tel": "", "longitude": 2.4807581, "latitude": 48.8430461 }, "geometry": { "type": "Point", "coordinates": [ 2.4807581, 48.8430461 ] } },
{ "type": "Feature", "properties": { "adresse": "49 AVENUE RABELAIS 94120 FONTENAY SOUS BOIS", "agrement": "Agrément maternel Capacité: 3", "nom": "RAZINE Fawzia", "tel": "01-74-50-03-92", "longitude": 2.4814551, "latitude": 48.8522852 }, "geometry": { "type": "Point", "coordinates": [ 2.4814551, 48.8522852 ] } },
{ "type": "Feature", "properties": { "adresse": "ADRESSE", "agrement": "TYPE D'AGREMENT", "nom": "ASSISTANT(E) MATERNEL(LE) ET\/OU FAMILIAL(E)", "tel": null, "longitude": 144.75777994409501, "latitude": -37.9025717 }, "geometry": { "type": "Point", "coordinates": [ 144.757779944095006, -37.9025717 ] } },
{ "type": "Feature", "properties": { "adresse": "3 AVENUE PABLO PICASSO Residence Olympique 94120 FONTENAY SOUS BOIS", "agrement": "Agrément maternel Capacité: 0", "nom": "REHIOUI (NEKKHA) Lamia", "tel": "", "longitude": null, "latitude": null }, "geometry": null },
{ "type": "Feature", "properties": { "adresse": "6BIS AVENUE VICTOR HUGO 94120 FONTENAY SOUS BOIS", "agrement": "Agrément maternel Capacité: 3", "nom": "RODRIGUES (DE CARVALHO CORDEIRO) Ana", "tel": "01-48-75-25-84", "longitude": 2.48157, "latitude": 48.8613286 }, "geometry": { "type": "Point", "coordinates": [ 2.48157, 48.8613286 ] } },
{ "type": "Feature", "properties": { "adresse": "5 RUE DE LA CROIX HEURTEBISE 94120 FONTENAY SOUS BOIS", "agrement": "Agrément maternel Capacité: 3", "nom": "ROLIN (AROQUIAME) Patricia", "tel": "01-48-75-35-57", "longitude": null, "latitude": null }, "geometry": null },
{ "type": "Feature", "properties": { "adresse": "6BIS BOULEVARD DE VERDUN 94120 FONTENAY SOUS BOIS", "agrement": "Agrément maternel Capacité: 3", "nom": "ROLLAND (AZNI) Farah", "tel": "01-49-74-05-19", "longitude": 2.4694928, "latitude": 48.8538342 }, "geometry": { "type": "Point", "coordinates": [ 2.4694928, 48.8538342 ] } },
{ "type": "Feature", "properties": { "adresse": "5 RUE AIME ET EUGENIE COTTON Batiment Jura 94120 FONTENAY SOUS BOIS", "agrement": "Agrément maternel Capacité: 3", "nom": "RONCONE (HUANSI) Norma", "tel": "01-51-35-32-79", "longitude": null, "latitude": null }, "geometry": null },
{ "type": "Feature", "properties": { "adresse": "75 AVENUE DE STALINGRAD 94120 FONTENAY SOUS BOIS", "agrement": "Agrément maternel Capacité: 3", "nom": "ROSENBERG (NIZARD) Sylvie", "tel": "01-48-75-87-72", "longitude": 2.4495069, "latitude": 48.8525234 }, "geometry": { "type": "Point", "coordinates": [ 2.4495069, 48.8525234 ] } },
{ "type": "Feature", "properties": { "adresse": "8 RUE PAUL LANGEVIN 94120 FONTENAY SOUS BOIS", "agrement": "Agrément maternel Capacité: 3", "nom": "ROUHANA (ABOU JAOUDE) Takla", "tel": "01-43-94-13-10", "longitude": 2.4782087, "latitude": 48.855097 }, "geometry": { "type": "Point", "coordinates": [ 2.4782087, 48.855097 ] } },
{ "type": "Feature", "properties": { "adresse": "3 RUE DES ORMES 94120 FONTENAY SOUS BOIS", "agrement": "Agrément maternel Capacité: 2", "nom": "SAADA (JELLIETI) Hanene", "tel": "01-49-74-99-62", "longitude": 2.4760682, "latitude": 48.8483175 }, "geometry": { "type": "Point", "coordinates": [ 2.4760682, 48.8483175 ] } },
{ "type": "Feature", "properties": { "adresse": "1 RUE JEAN MACE APPT 84 94120 FONTENAY SOUS BOIS", "agrement": "Agrément maternel Capacité: 3", "nom": "SAAD (HABER) Pascale", "tel": "09-51-87-34-73", "longitude": null, "latitude": null }, "geometry": null },
{ "type": "Feature", "properties": { "adresse": "21TER RUE ANDRE TESSIER 94120 FONTENAY SOUS BOIS", "agrement": "Agrément maternel Capacité: 3", "nom": "SAHRAOUI Fouzia", "tel": "09-80-82-63-70", "longitude": 2.4709102, "latitude": 48.8514984 }, "geometry": { "type": "Point", "coordinates": [ 2.4709102, 48.8514984 ] } },
{ "type": "Feature", "properties": { "adresse": "ADRESSE", "agrement": "TYPE D'AGREMENT", "nom": "ASSISTANT(E) MATERNEL(LE) ET\/OU FAMILIAL(E)", "tel": null, "longitude": 144.75777994409501, "latitude": -37.9025717 }, "geometry": { "type": "Point", "coordinates": [ 144.757779944095006, -37.9025717 ] } },
{ "type": "Feature", "properties": { "adresse": "13 RUE DES CARRIERES 94120 FONTENAY SOUS BOIS", "agrement": "Agrément maternel Capacité: 3", "nom": "SAIDI (BEN HAMOUDA) Nadra", "tel": "01-83-42-11-49", "longitude": 2.4681134, "latitude": 48.8480141 }, "geometry": { "type": "Point", "coordinates": [ 2.4681134, 48.8480141 ] } },
{ "type": "Feature", "properties": { "adresse": "51 RUE PIERRE DULAC 94120 FONTENAY SOUS BOIS", "agrement": "Agrément maternel Capacité: 1", "nom": "SAKO (SAKO) Nene", "tel": "", "longitude": 2.461534, "latitude": 48.848637 }, "geometry": { "type": "Point", "coordinates": [ 2.461534, 48.848637 ] } },
{ "type": "Feature", "properties": { "adresse": "4 RESIDENCE DU CLOS D ORLEANS 94120 FONTENAY SOUS BOIS", "agrement": "Agrément maternel Capacité: 3", "nom": "SALVATORE (PLAZANET) Cecile", "tel": "09-51-67-13-26", "longitude": null, "latitude": null }, "geometry": null },
{ "type": "Feature", "properties": { "adresse": "7 RUE GASTON CHARLE Boite n° 67 94120 FONTENAY SOUS BOIS", "agrement": "Agrément maternel Capacité: 2", "nom": "SATIZELLE (ASSOULINE) Isabelle", "tel": "01-48-76-53-72", "longitude": null, "latitude": null }, "geometry": null },
{ "type": "Feature", "properties": { "adresse": "1 ALLEE ALBERT CAMUS Appartement n° 201 94120 FONTENAY SOUS BOIS", "agrement": "Agrément maternel Capacité: 4", "nom": "SEBAI (BRUCAMPS) Marie Noelle", "tel": "01-77-20-22-10", "longitude": null, "latitude": null }, "geometry": null },
{ "type": "Feature", "properties": { "adresse": "119 RUE JEAN JAURES 94120 FONTENAY SOUS BOIS", "agrement": "Agrément maternel Capacité: 3", "nom": "SEHAYAK (ZAAZOUA) Rachida", "tel": "09-73-66-34-82", "longitude": 2.4691681, "latitude": 48.85819 }, "geometry": { "type": "Point", "coordinates": [ 2.4691681, 48.85819 ] } },
{ "type": "Feature", "properties": { "adresse": "23 AVENUE DES OLYMPIADES 94120 FONTENAY SOUS BOIS", "agrement": "Agrément maternel Capacité: 1", "nom": "SELLES (TRAN) Thi Phuong", "tel": "01-48-73-36-18", "longitude": 2.4878466, "latitude": 48.8552362 }, "geometry": { "type": "Point", "coordinates": [ 2.4878466, 48.8552362 ] } },
{ "type": "Feature", "properties": { "adresse": "5 ALLEE MAXIME GORKI Appartement n° 397 94120 FONTENAY SOUS BOIS", "agrement": "Agrément maternel Capacité: 3", "nom": "SENDJAKEDDINE (MACHIOUZE) Farida", "tel": "01-43-94-11-15", "longitude": null, "latitude": null }, "geometry": null },
{ "type": "Feature", "properties": { "adresse": "66 RUE EDOUARD MAURY 94120 FONTENAY SOUS BOIS", "agrement": "Agrément maternel Capacité: 3", "nom": "SENECHAL (FARNAULT) Severine", "tel": "01-48-77-06-78", "longitude": 2.4647243, "latitude": 48.8548123 }, "geometry": { "type": "Point", "coordinates": [ 2.4647243, 48.8548123 ] } },
{ "type": "Feature", "properties": { "adresse": "76 RUE LOUIS XAVIER DE RICARD 94120 FONTENAY SOUS BOIS", "agrement": "Agrément maternel Capacité: 3", "nom": "SKURCZYNSKI (STANCZYK) Katarzyna", "tel": "09-53-86-21-71", "longitude": null, "latitude": null }, "geometry": null },
{ "type": "Feature", "properties": { "adresse": "ADRESSE", "agrement": "TYPE D'AGREMENT", "nom": "ASSISTANT(E) MATERNEL(LE) ET\/OU FAMILIAL(E)", "tel": null, "longitude": 144.75777994409501, "latitude": -37.9025717 }, "geometry": { "type": "Point", "coordinates": [ 144.757779944095006, -37.9025717 ] } },
{ "type": "Feature", "properties": { "adresse": "1BIS RUE DES CARRIERES 94120 FONTENAY SOUS BOIS", "agrement": "Agrément maternel Capacité: 3", "nom": "SOOMARCHUN (NEERMUL) Jamantee", "tel": "01-48-73-57-18", "longitude": 2.4681134, "latitude": 48.8480141 }, "geometry": { "type": "Point", "coordinates": [ 2.4681134, 48.8480141 ] } },
{ "type": "Feature", "properties": { "adresse": "27 BOULEVARD DE VERDUN 94120 FONTENAY SOUS BOIS", "agrement": "Agrément maternel Capacité: 3", "nom": "SOUSSI (EL FATMI) Sabine", "tel": "01-48-73-59-23", "longitude": 2.4722566, "latitude": 48.8521738 }, "geometry": { "type": "Point", "coordinates": [ 2.4722566, 48.8521738 ] } },
{ "type": "Feature", "properties": { "adresse": "4 AVENUE DE NEUILLY 94120 FONTENAY SOUS BOIS", "agrement": "Agrément maternel Capacité: 3", "nom": "STAGNARO Isabelle", "tel": "01-48-76-75-07", "longitude": 2.486737, "latitude": 48.8474325 }, "geometry": { "type": "Point", "coordinates": [ 2.486737, 48.8474325 ] } },
{ "type": "Feature", "properties": { "adresse": "8 RUE MONTESQUIEU 94120 FONTENAY SOUS BOIS", "agrement": "Agrément maternel Capacité: 2", "nom": "SULEJMANOVIC Nedzarija", "tel": "06-11-70-34-14", "longitude": 2.4841741, "latitude": 48.8488017 }, "geometry": { "type": "Point", "coordinates": [ 2.4841741, 48.8488017 ] } },
{ "type": "Feature", "properties": { "adresse": "2 RUE DU BUISSON DE LA BERGERE 94120 FONTENAY SOUS BOIS", "agrement": "Agrément maternel Capacité: 3", "nom": "TAARABT Laetitia", "tel": "", "longitude": null, "latitude": null }, "geometry": null },
{ "type": "Feature", "properties": { "adresse": "94 RUE PASTEUR Boite n° 13 94120 FONTENAY SOUS BOIS", "agrement": "Agrément maternel Capacité: 2", "nom": "TAHAR Yasmine", "tel": "09-51-12-00-13", "longitude": null, "latitude": null }, "geometry": null },
{ "type": "Feature", "properties": { "adresse": "24 RUE MAXIMILIEN ROBESPIERRE 94120 FONTENAY SOUS BOIS", "agrement": "Agrément maternel Capacité: 2", "nom": "TANNIN (RONCONE) Nathalie", "tel": "01-77-99-09-20", "longitude": 2.4863082, "latitude": 48.8506542 }, "geometry": { "type": "Point", "coordinates": [ 2.4863082, 48.8506542 ] } },
{ "type": "Feature", "properties": { "adresse": "5 RUE DU BUISSON DE LA BERGERE 94120 FONTENAY SOUS BOIS", "agrement": "Agrément maternel Capacité: 3", "nom": "TAOUEB (DRIDI) Halima", "tel": "01-71-36-32-54", "longitude": null, "latitude": null }, "geometry": null },
{ "type": "Feature", "properties": { "adresse": "15 RUE GEORGES LE TIEC 94120 FONTENAY SOUS BOIS", "agrement": "Agrément maternel Capacité: 3", "nom": "TARSITANO (IDRI) Melissa", "tel": "09-53-51-15-39", "longitude": 2.4507057, "latitude": 48.8528871 }, "geometry": { "type": "Point", "coordinates": [ 2.4507057, 48.8528871 ] } },
{ "type": "Feature", "properties": { "adresse": "7 RUE JEAN ZAY 94120 FONTENAY SOUS BOIS", "agrement": "Agrément maternel Capacité: 3", "nom": "TEILLARD (PHO) Sovanna", "tel": "01-77-01-08-66", "longitude": 2.4840891, "latitude": 48.8568505 }, "geometry": { "type": "Point", "coordinates": [ 2.4840891, 48.8568505 ] } },
{ "type": "Feature", "properties": { "adresse": "ADRESSE", "agrement": "TYPE D'AGREMENT", "nom": "ASSISTANT(E) MATERNEL(LE) ET\/OU FAMILIAL(E)", "tel": null, "longitude": 144.75777994409501, "latitude": -37.9025717 }, "geometry": { "type": "Point", "coordinates": [ 144.757779944095006, -37.9025717 ] } },
{ "type": "Feature", "properties": { "adresse": "111 BOULEVARD GALLIENI 94120 FONTENAY SOUS BOIS", "agrement": "Agrément maternel Capacité: 2", "nom": "TEKRANE (HENIA) Fatiha", "tel": "09-51-39-34-71", "longitude": 2.4780754, "latitude": 48.8482248 }, "geometry": { "type": "Point", "coordinates": [ 2.4780754, 48.8482248 ] } },
{ "type": "Feature", "properties": { "adresse": "57 RUE DES 3 TERRITOIRES 94120 FONTENAY SOUS BOIS", "agrement": "Agrément maternel Capacité: 2", "nom": "TELLIEZ-BARBOUTH (TELLIEZ) Muriel", "tel": "01-81-53-02-09", "longitude": null, "latitude": null }, "geometry": null },
{ "type": "Feature", "properties": { "adresse": "1 RUE DE LA CROIX HEURTEBISE 94120 FONTENAY SOUS BOIS", "agrement": "Agrément maternel Capacité: 2", "nom": "THIBAUDON (NGO BONGA) Joselie", "tel": "01-48-77-04-02", "longitude": null, "latitude": null }, "geometry": null },
{ "type": "Feature", "properties": { "adresse": "09 RUE DESIRE RICHEBOIS 94120 FONTENAY SOUS BOIS", "agrement": "Agrément maternel Capacité: 3", "nom": "THOMAS (BAGAYOKO) Kadidiatou", "tel": "", "longitude": 2.4751567, "latitude": 48.8441047 }, "geometry": { "type": "Point", "coordinates": [ 2.4751567, 48.8441047 ] } },
{ "type": "Feature", "properties": { "adresse": "16 RUE JEAN ZAY 94120 FONTENAY SOUS BOIS", "agrement": "Agrément maternel Capacité: 3", "nom": "THUBAUT (LALUQUE) Nadine", "tel": "01-48-77-13-40", "longitude": 2.48519083042259, "latitude": 48.85616665 }, "geometry": { "type": "Point", "coordinates": [ 2.48519083042259, 48.85616665 ] } },
{ "type": "Feature", "properties": { "adresse": "44 RUE JEAN-JACQUES ROUSSEAU 94120 FONTENAY SOUS BOIS", "agrement": "Agrément maternel Capacité: 3", "nom": "TIGRI (RUSTICO) Emma", "tel": "01-48-76-33-17", "longitude": 2.458617, "latitude": 48.8468489 }, "geometry": { "type": "Point", "coordinates": [ 2.458617, 48.8468489 ] } },
{ "type": "Feature", "properties": { "adresse": "12 RUE DANIELLE CASANOVA 94120 FONTENAY SOUS BOIS", "agrement": "Agrément maternel Capacité: 3", "nom": "TORRES (MASSON) Virginie", "tel": "", "longitude": 2.4756851, "latitude": 48.8544739 }, "geometry": { "type": "Point", "coordinates": [ 2.4756851, 48.8544739 ] } },
{ "type": "Feature", "properties": { "adresse": "113 BOULEVARD GALLIENI RESIDENCE DES EMERIS 94120 FONTENAY SOUS BOIS", "agrement": "Agrément maternel Capacité: 2", "nom": "TOUABI (TAZIBT) Muriel", "tel": "01-48-76-15-26", "longitude": null, "latitude": null }, "geometry": null },
{ "type": "Feature", "properties": { "adresse": "22 RUE GEORGES GUYNEMER 94120 FONTENAY SOUS BOIS", "agrement": "Agrément maternel Capacité: 3", "nom": "TOUAMI (TAOURI) Nawal", "tel": "09-51-33-28-16", "longitude": 2.4871966042105198, "latitude": 48.8492817 }, "geometry": { "type": "Point", "coordinates": [ 2.48719660421052, 48.8492817 ] } },
{ "type": "Feature", "properties": { "adresse": "53 AVENUE RABELAIS 94120 FONTENAY SOUS BOIS", "agrement": "Agrément maternel Capacité: 2", "nom": "TOUENTI Bahia", "tel": "01-41-95-14-84", "longitude": 2.4814551, "latitude": 48.8522852 }, "geometry": { "type": "Point", "coordinates": [ 2.4814551, 48.8522852 ] } },
{ "type": "Feature", "properties": { "adresse": "ADRESSE", "agrement": "TYPE D'AGREMENT", "nom": "ASSISTANT(E) MATERNEL(LE) ET\/OU FAMILIAL(E)", "tel": null, "longitude": 144.75777994409501, "latitude": -37.9025717 }, "geometry": { "type": "Point", "coordinates": [ 144.757779944095006, -37.9025717 ] } },
{ "type": "Feature", "properties": { "adresse": "58 RUE GUERIN LEROUX 94120 FONTENAY SOUS BOIS", "agrement": "Agrément maternel Capacité: 2", "nom": "TOUENTI (BORDJI) Salima", "tel": "01-48-73-12-17", "longitude": 2.4774752, "latitude": 48.8487146 }, "geometry": { "type": "Point", "coordinates": [ 2.4774752, 48.8487146 ] } },
{ "type": "Feature", "properties": { "adresse": "1 RUE JEAN ZAY 94120 FONTENAY SOUS BOIS", "agrement": "Agrément maternel Capacité: 2", "nom": "TOYGAR Ihsaniye", "tel": "01-48-77-92-85", "longitude": 2.4824263, "latitude": 48.8567034 }, "geometry": { "type": "Point", "coordinates": [ 2.4824263, 48.8567034 ] } },
{ "type": "Feature", "properties": { "adresse": "132 RUE DES 4 RUELLES 94120 FONTENAY SOUS BOIS", "agrement": "Agrément maternel Capacité: 3", "nom": "TRABELSI Moufida", "tel": "01-79-86-25-83", "longitude": null, "latitude": null }, "geometry": null },
{ "type": "Feature", "properties": { "adresse": "9 RUE DES CARRIERES 94120 FONTENAY SOUS BOIS", "agrement": "Agrément maternel Capacité: 4", "nom": "TRAORE Kadidiatou", "tel": "01-48-75-26-96", "longitude": 2.4681134, "latitude": 48.8480141 }, "geometry": { "type": "Point", "coordinates": [ 2.4681134, 48.8480141 ] } },
{ "type": "Feature", "properties": { "adresse": "16 RUE JEAN ZAY 94120 FONTENAY SOUS BOIS", "agrement": "Agrément maternel Capacité: 2", "nom": "TRICOCHE (LACHARGES) Christiane", "tel": "09-86-12-85-55", "longitude": 2.48519083042259, "latitude": 48.85616665 }, "geometry": { "type": "Point", "coordinates": [ 2.48519083042259, 48.85616665 ] } },
{ "type": "Feature", "properties": { "adresse": "11 RUE DE LA MARE A GUILLAUME 94120 FONTENAY SOUS BOIS", "agrement": "Agrément maternel Capacité: 3", "nom": "TYBURSKI (VIVIEN) Sandrine", "tel": "09-51-85-92-91", "longitude": null, "latitude": null }, "geometry": null },
{ "type": "Feature", "properties": { "adresse": "18BIS RUE DALAYRAC 94120 FONTENAY SOUS BOIS", "agrement": "Agrément maternel Capacité: 3", "nom": "VAIDIS (GOBERT) Magali", "tel": "01-48-77-06-68", "longitude": 2.4647361, "latitude": 48.8486548 }, "geometry": { "type": "Point", "coordinates": [ 2.4647361, 48.8486548 ] } },
{ "type": "Feature", "properties": { "adresse": "92 RUE DALAYRAC 94120 FONTENAY SOUS BOIS", "agrement": "Agrément maternel Capacité: 3", "nom": "VANBOSTAL (FELUT) Nathalie", "tel": "01-41-95-19-02", "longitude": 2.4592568, "latitude": 48.8492244 }, "geometry": { "type": "Point", "coordinates": [ 2.4592568, 48.8492244 ] } },
{ "type": "Feature", "properties": { "adresse": "48 BOULEVARD DE VERDUN 94120 FONTENAY SOUS BOIS", "agrement": "Agrément maternel Capacité: 2", "nom": "VERNIER Eric", "tel": "09-51-97-96-56", "longitude": 2.4706067, "latitude": 48.8532248 }, "geometry": { "type": "Point", "coordinates": [ 2.4706067, 48.8532248 ] } },
{ "type": "Feature", "properties": { "adresse": "6 BOULEVARD ANDRE BASSEE 94120 FONTENAY SOUS BOIS", "agrement": "Agrément maternel Capacité: 3", "nom": "VIREVIALLE (SCAGLIOSO) Vincenza", "tel": "01-74-50-54-60", "longitude": 2.4713516, "latitude": 48.8463851 }, "geometry": { "type": "Point", "coordinates": [ 2.4713516, 48.8463851 ] } },
{ "type": "Feature", "properties": { "adresse": "ADRESSE", "agrement": "TYPE D'AGREMENT", "nom": "ASSISTANT(E) MATERNEL(LE) ET\/OU FAMILIAL(E)", "tel": null, "longitude": 144.75777994409501, "latitude": -37.9025717 }, "geometry": { "type": "Point", "coordinates": [ 144.757779944095006, -37.9025717 ] } },
{ "type": "Feature", "properties": { "adresse": "11 RUE AIME ET EUGENIE COTTON 94120 FONTENAY SOUS BOIS", "agrement": "Agrément maternel Capacité: 2", "nom": "WATSON-PADJEMI Ami", "tel": "01-48-76-05-22", "longitude": 2.47928966086207, "latitude": 48.85429675 }, "geometry": { "type": "Point", "coordinates": [ 2.47928966086207, 48.85429675 ] } },
{ "type": "Feature", "properties": { "adresse": "6 RUE PAUL LANGEVIN 94120 FONTENAY SOUS BOIS", "agrement": "Agrément maternel Capacité: 3", "nom": "WILLIAM-ERIAN (ADAB) Aicha", "tel": "01-43-94-30-01", "longitude": 2.4792834, "latitude": 48.8547996 }, "geometry": { "type": "Point", "coordinates": [ 2.4792834, 48.8547996 ] } },
{ "type": "Feature", "properties": { "adresse": "38BIS RUE DES EMERIS 94120 FONTENAY SOUS BOIS", "agrement": "Agrément maternel Capacité: 3", "nom": "YAHI (DOLFI) Elisabeth", "tel": "01-48-73-02-61", "longitude": 2.4773637, "latitude": 48.8479281 }, "geometry": { "type": "Point", "coordinates": [ 2.4773637, 48.8479281 ] } },
{ "type": "Feature", "properties": { "adresse": "1 RUE JEAN MACE Appartement n° 62 94120 FONTENAY SOUS BOIS", "agrement": "Agrément maternel Capacité: 3", "nom": "YOUSSEF Hanaa", "tel": "01-41-95-24-53", "longitude": null, "latitude": null }, "geometry": null },
{ "type": "Feature", "properties": { "adresse": "29 RUE AUGUSTE COMTE 94120 FONTENAY SOUS BOIS", "agrement": "Agrément maternel Capacité: 2", "nom": "ZACCHI (BUSTAMANTE HERRERA) Maria", "tel": "", "longitude": 2.4672429, "latitude": 48.8532763 }, "geometry": { "type": "Point", "coordinates": [ 2.4672429, 48.8532763 ] } },
{ "type": "Feature", "properties": { "adresse": "9 RUE FERNAND LEGER 94120 FONTENAY SOUS BOIS", "agrement": "Agrément maternel Capacité: 2", "nom": "ZLATICANIN (MARAS) Milijana", "tel": "01-48-76-12-05", "longitude": 2.4864098, "latitude": 48.8503438 }, "geometry": { "type": "Point", "coordinates": [ 2.4864098, 48.8503438 ] } }
]
}
